,School_ID_x,Short_Name,Zip,Lat,Long,GeoNetwork,COMMAREA,WARD_15,ca_id,fin_id,tot_student,perc_low_income,perc_black_his_stu,bus_count,pre_cov_att,post_cov_att,att_diff_pp,School_ID_y,match_score,teachers,teachers_per_100stu,help_fte_per_100stu,dolla_per_student,salary_per_teacher
0,400013,ASPIRA - EARLY COLLEGE HS,60618,41.93729829,-87.72709566,4,AVONDALE,30,22,66254,262,0.8625954198473282,1.0,3,90.425,85.1125,5.312500000000014,,,,,,18543.84351145038,
1,400022,CHIARTS HS,60622,41.89937657,-87.69494501,5,WEST TOWN,26,25,63051,598,0.520066889632107,0.7290969899665551,4,96.7,94.6875,2.012500000000003,,,,,,12102.051839464883,
2,400032,CICS - ELLISON HS,60620,41.74838241,-87.66897964,11,AUBURN GRESHAM,17,70,66072,205,0.8634146341463415,0.9951219512195122,4,88.5875,80.275,8.3125,400032.0,0.95,17.0,26.15384615384616,1.5384615384615383,15125.024390243903,46151.05882352941
3,400033,CICS - LONGWOOD,60643,41.72122143,-87.65576813,11,WASHINGTON HEIGHTS,21,72,66061,1241,0.7832393231265109,0.991941982272361,2,88.3375,79.4,8.9375,400033.0,0.94,63.0,96.92307692307692,3.8461538461538463,14972.80741337631,54398.206349206346
4,400034,CICS - NORTHTOWN HS,60659,41.99024501,-87.72650426,1,NORTH PARK,39,13,66241,891,0.77665544332211,0.6790123456790124,2,93.975,93.7625,0.2125000000000056,400034.0,0.93,64.0,98.46153846153848,6.923076923076923,15730.901234567902,36840.25
5,400035,CHICAGO MATH & SCIENCE HS,60626,42.01303149,-87.67481842,2,ROGERS PARK,49,10,66281,601,0.8252911813643927,0.7986688851913477,1,95.1875,94.4625,0.7249999999999943,,,,,,14658.430948419302,
6,400051,NOBLE - NOBLE HS,60642,41.90019052,-87.66262778,6,WEST TOWN,2,25,66141,652,0.7868098159509203,0.9539877300613496,3,94.45,77.1,17.349999999999994,,,,,,15826.789877300613,
7,400052,NOBLE - COMER,60619,41.76525228,-87.60416375,12,GREATER GRAND CROSSING,5,67,66146,1020,0.7549019607843137,0.9823529411764704,3,92.4125,81.8125,10.599999999999994,,,,,,16870.620588235295,
8,400053,NOBLE - GOLDER HS,60642,41.89528219,-87.664483,6,WEST TOWN,27,25,66145,643,0.7900466562986003,0.9626749611197511,3,92.3625,72.6375,19.72500000000001,400053.0,0.9,35.0,53.84615384615385,19.07692307692308,15561.486780715397,50975.57142857143
9,400054,NOBLE - PRITZKER HS,60639,41.91521411,-87.73012671,4,HERMOSA,35,21,66142,968,0.9008264462809916,0.9803719008264464,3,94.65,86.7875,7.862500000000011,400054.0,0.9,50.0,76.92307692307693,20.307692307692307,14885.478305785124,47809.14
10,400055,NOBLE - RAUNER HS,60642,41.89242501,-87.66085887,6,WEST TOWN,1,25,66143,651,0.7357910906298003,0.9615975422427036,3,93.0625,80.30000000000001,12.762499999999989,,,,,,14672.485407066053,
11,400056,NOBLE - ROWE CLARK HS,60651,41.89536226,-87.71804677,5,HUMBOLDT PARK,27,24,66144,375,0.88,0.992,3,89.76249999999999,72.5375,17.224999999999994,,,,,,16490.357333333333,
12,400057,NOBLE - UIC HS,60608,41.86581741,-87.67611093,6,NEAR WEST SIDE,28,29,66147,876,0.8047945205479452,0.9440639269406392,2,93.0375,83.175,9.862499999999995,,,,,,14923.615296803653,
13,400058,NORTH LAWNDALE - CHRISTIANA HS,60623,41.85856355,-87.70898711,5,NORTH LAWNDALE,24,30,66091,313,0.9041533546325878,0.9968051118210862,2,94.15,79.0125,15.137500000000005,400058.0,0.91,25.0,38.46153846153847,5.6923076923076925,15116.444089456869,51731.48
14,400058,NORTH LAWNDALE - CHRISTIANA HS,60623,41.85856355,-87.70898711,5,NORTH LAWNDALE,24,30,66091,313,0.9041533546325878,0.9968051118210862,2,94.15,79.0125,15.137500000000005,400058.0,0.92,25.0,38.46153846153847,5.6923076923076925,15116.444089456869,64914.12
15,400059,NORTH LAWNDALE - COLLINS HS,60623,41.86414584,-87.7006806,5,NORTH LAWNDALE,24,30,66092,418,0.9473684210526316,0.9880382775119616,3,94.1875,74.8125,19.375,,,,,,14103.916267942584,
16,400061,PERSPECTIVES - LEADERSHIP HS,60620,41.74596083,-87.65204509,11,AUBURN GRESHAM,21,70,66052,643,0.8740279937791602,0.9922239502332816,2,91.4875,81.5,9.987499999999995,400061.0,0.91,49.0,75.38461538461539,3.0,12627.298600311042,23395.0
17,400062,PERSPECTIVES - TECH HS,60620,41.74594902,-87.65065702,11,AUBURN GRESHAM,21,70,66053,347,0.8501440922190202,0.9913544668587896,2,91.125,79.5875,11.537499999999994,400062.0,0.93,33.0,50.76923076923077,1.5384615384615383,15034.403458213257,27567.333333333332
18,400064,PERSPECTIVES - JOSLIN HS,60616,41.85599911,-87.6285309,6,NEAR SOUTH SIDE,3,34,66051,365,0.8273972602739726,0.9753424657534246,4,93.2,79.19999999999999,14.000000000000014,,,,,,15560.98904109589,
19,400066,PERSPECTIVES - MATH & SCI HS,60653,41.82778386,-87.62478772,9,DOUGLAS,3,1,66056,407,0.8255528255528255,0.972972972972973,3,89.55000000000001,73.6,15.950000000000015,,,,,,14285.42751842752,
20,400075,U OF C - DONOGHUE,60653,41.82772608,-87.60850078,9,OAKLAND,4,2,66321,474,0.7025316455696202,0.9915611814345991,3,94.55,88.80000000000001,5.75,,,,,,11455.20464135021,
21,400076,U OF C - NKO,60653,41.81118287,-87.59878627,9,KENWOOD,4,5,66111,319,0.6018808777429467,0.962382445141066,3,95.25,89.6,5.650000000000006,,,,,,10464.793103448275,
22,400077,U OF C - WOODLAWN HS,60637,41.7781297,-87.59811392,9,WOODLAWN,20,9,66112,567,0.7601410934744268,0.9982363315696648,2,92.9625,84.3,8.662500000000009,400077.0,0.91,44.0,67.6923076923077,8.076923076923077,16972.25925925926,46044.568181818184
23,400085,ACERO - GARCIA HS,60632,41.80917079,-87.73046685,8,ARCHER HEIGHTS,14,54,66394,638,0.8636363636363636,0.9780564263322884,2,91.9,81.425,10.475000000000009,,,,,,15217.877742946708,
24,400086,URBAN PREP - ENGLEWOOD HS,60621,41.78149782,-87.63435669,11,ENGLEWOOD,20,66,66441,155,0.8903225806451613,0.9870967741935484,7,92.025,84.92500000000001,7.099999999999994,,,,,,20397.251612903226,
25,400094,EPIC HS,60617,41.74484911,-87.55022237,12,SOUTH CHICAGO,7,42,63081,325,0.9415384615384615,0.9476923076923076,3,92.2875,79.9375,12.349999999999994,400094.0,0.92,36.0,55.38461538461539,3.076923076923077,23042.39076923077,59585.555555555555
26,400097,NOBLE - BULLS HS,60612,41.87880881,-87.67819526,6,NEAR WEST SIDE,27,29,66572,1157,0.8807260155574762,0.9844425237683664,3,93.225,80.76249999999999,12.462500000000006,,,,,,13773.08988764045,
27,400098,NOBLE - MUCHIN HS,60602,41.88274026,-87.62633828,6,LOOP,42,38,66573,823,0.8165249088699879,0.9356014580801943,20,94.8125,80.8125,14.0,,,,,,17097.823815309843,
28,400104,INSTITUTO - HEALTH,60608,41.84596659,-87.68724016,7,LOWER WEST SIDE,25,33,63131,622,0.842443729903537,0.9871382636655948,2,87.5625,88.4,-0.8375000000000057,,,,,,15378.918006430868,
29,400106,NOBLE - JOHNSON HS,60621,41.7783695,-87.6351167,11,ENGLEWOOD,20,66,66148,471,0.832271762208068,0.989384288747346,2,87.51249999999999,69.825,17.687499999999986,,,,,,15435.053078556264,
30,400115,CATALYST - MARIA,60629,41.77099172,-87.69307532,10,CHICAGO LAWN,17,64,66433,552,0.8405797101449275,0.9655797101449276,3,94.9375,90.6625,4.275000000000006,400115.0,0.91,78.0,120.0,7.6923076923076925,29970.827898550724,50122.256410256414
31,400117,NOBLE - HANSBERRY HS,60620,41.73444162,-87.65098673,11,AUBURN GRESHAM,21,70,66574,481,0.7817047817047817,0.9854469854469856,3,92.0375,78.9,13.137499999999989,400117.0,0.91,62.0,95.3846153846154,22.46153846153846,15822.989604989605,57227.532258064515
32,400118,NOBLE - DRW HS,60624,41.86932808,-87.71165423,5,NORTH LAWNDALE,24,30,66575,347,0.8731988472622478,0.9971181556195964,1,87.3375,60.8875,26.450000000000003,400118.0,0.9,50.0,76.92307692307693,22.153846153846157,13773.319884726225,47810.7
33,400118,NOBLE - DRW HS,60624,41.86932808,-87.71165423,5,NORTH LAWNDALE,24,30,66575,347,0.8731988472622478,0.9971181556195964,1,87.3375,60.8875,26.450000000000003,400118.0,0.91,48.0,73.84615384615385,20.0,13773.319884726225,51109.854166666664
34,400119,LEGAL PREP HS,60624,41.88173276,-87.73377838,5,WEST GARFIELD PARK,28,27,66641,242,0.8801652892561983,0.9958677685950412,1,86.15,77.67500000000001,8.474999999999994,400119.0,0.93,26.0,40.0,3.076923076923077,15131.702479338843,60216.42307692308
35,400121,ACERO - DE LA CRUZ,60645,42.01647588,-87.68440568,2,WEST RIDGE,49,20,66134,518,0.7625482625482626,0.9517374517374516,0,92.9125,84.1375,8.774999999999991,,,,,,16127.496138996139,
36,400124,YCCS - MCKINLEY,60616,41.84133117,-87.62533077,9,DOUGLAS,3,1,66107,66,0.803030303030303,1.0,1,62.016666666666666,69.9,-7.88333333333334,,,,,,1016.969696969697,
37,400130,YCCS - YOUTH DEVELOPMENT,60620,41.75137711,-87.64173119,11,AUBURN GRESHAM,6,70,66614,59,0.8813559322033898,0.9830508474576272,2,62.48333333333333,55.366666666666674,7.11666666666666,400130.0,0.93,7.0,10.76923076923077,0.0,751.6610169491526,38198.71428571428
38,400133,YCCS - INNOVATIONS,60602,41.88304717,-87.62773415,6,LOOP,42,38,66617,455,0.8637362637362638,0.9758241758241758,2,51.28333333333334,52.35,-1.0666666666666558,,,,,,190.27692307692308,
39,400137,LITTLE BLACK PEARL HS,60653,41.8096955,-87.59933994,9,KENWOOD,4,5,63161,83,0.8072289156626506,0.9879518072289156,1,78.7875,82.9,-4.112500000000011,400137.0,0.91,8.0,12.307692307692308,3.076923076923077,23040.22891566265,65887.75
40,400139,YCCS - SULLIVAN,60617,41.74628657,-87.57849167,12,AVALON PARK,8,41,66623,306,0.8986928104575164,0.9869281045751634,4,83.15,89.25,-6.099999999999994,400139.0,0.95,15.0,23.07692307692308,0.0,219.78758169934642,37400.73333333333
41,400143,YCCS - WEST TOWN,60612,41.89080312,-87.7020528,5,HUMBOLDT PARK,27,24,66627,70,0.8285714285714286,0.9714285714285714,2,60.88333333333334,62.96666666666667,-2.0833333333333286,400143.0,0.93,12.0,18.461538461538463,0.0,661.3428571428572,11164.5
42,400145,YCCS - YOUTH CONNECTION,60616,41.83207206,-87.62678147,9,DOUGLAS,3,1,66629,97,0.8144329896907216,0.9690721649484536,2,59.266666666666666,47.016666666666666,12.25,400145.0,0.97,12.0,18.461538461538463,3.076923076923077,762.9690721649484,34632.916666666664
43,400147,CAMELOT - CHICAGO EXCEL HS,60643,41.69196931,-87.65372654,13,MORGAN PARK,34,74,63141,208,0.7451923076923077,0.9807692307692308,1,79.6625,68.2,11.462499999999991,400147.0,1.0,14.0,21.53846153846154,3.2,23287.25,51876.28571428572
44,400149,ACERO - SOTO HS,60632,41.80176225,-87.71102498,8,GAGE PARK,14,61,66137,562,0.9537366548042704,0.99288256227758,2,87.75,84.2,3.549999999999997,,,,,,13978.209964412812,
45,400150,YCCS - CHATHAM,60619,41.73013139,-87.60697991,12,CHATHAM,8,40,66631,119,0.7899159663865546,1.0,4,69.19999999999999,56.1,13.099999999999987,,,,,,833.4705882352941,
46,400156,NOBLE - BUTLER HS,60628,41.70666686,-87.60257332,13,PULLMAN,9,47,66576,623,0.8330658105939005,0.9951845906902088,3,93.0125,74.23750000000001,18.774999999999977,,,,,,13905.293739967898,
47,400157,NOBLE - BAKER HS,60617,41.73462237,-87.55620144,12,SOUTH CHICAGO,7,42,66577,266,0.7744360902255639,0.9774436090225564,3,90.25,74.2875,15.962500000000006,,,,,,12934.097744360903,
48,400161,CHICAGO COLLEGIATE,60628,41.67931844,-87.61796787,13,WEST PULLMAN,9,50,66671,247,0.8704453441295547,0.9919028340080972,1,90.95,78.44999999999999,12.500000000000014,400161.0,1.0,24.0,36.92307692307693,3.384615384615385,21088.178137651823,53210.166666666664
49,400162,INTRINSIC HS,60641,41.93898843,-87.74112863,1,IRVING PARK,30,16,66691,975,0.8615384615384616,0.96,1,93.425,90.4625,2.9624999999999915,400162.0,0.96,61.0,93.84615384615384,4.307692307692308,15966.037948717949,54880.475409836065
50,400167,HORIZON - SOUTHWEST,60609,41.79520095,-87.68396339,8,GAGE PARK,15,61,63181,738,0.8739837398373984,0.9823848238482384,0,94.08333333333334,93.4,0.6833333333333371,,,,,,14115.991869918698,
51,400169,NOBLE - ITW SPEER HS,60639,41.91726641,-87.75967517,3,BELMONT CRAGIN,37,19,66149,1094,0.783363802559415,0.9853747714808044,0,93.825,82.625,11.199999999999989,,,,,,15594.344606946983,
52,400170,NOBLE - ACADEMY HS,60610,41.9068788,-87.64557694,4,NEAR NORTH SIDE,27,37,66578,590,0.7677966101694915,0.9322033898305084,5,93.025,80.0625,12.962500000000006,400170.0,0.91,26.0,40.0,11.076923076923077,11274.979661016949,52798.42307692308
53,400173,PATHWAYS - BRIGHTON PARK HS,60632,41.80822579,-87.70264475,8,BRIGHTON PARK,14,55,66801,454,0.7819383259911894,0.9647577092511012,0,72.275,65.375,6.900000000000006,,,,,,9506.83039647577,
54,400175,CAMELOT - EXCEL SOUTH SHORE HS,60649,41.75974864,-87.55648708,12,SOUTH SHORE,7,39,63143,189,0.7883597883597884,0.9682539682539684,4,74.7125,71.8125,2.9000000000000057,,,,,,15600.10582010582,
55,400176,CAMELOT - EXCEL SOUTHWEST HS,60629,41.76592892,-87.69073009,10,AUBURN GRESHAM,17,64,63144,101,0.7821782178217822,0.9702970297029704,2,73.01666666666667,64.85,8.166666666666671,400176.0,0.96,10.0,15.384615384615383,2.307692307692308,20994.673267326732,38942.6
56,609674,CHICAGO VOCATIONAL HS,60617,41.73717393,-87.57326752,12,AVALON PARK,8,41,53011,647,0.8222565687789799,0.9876352395672334,3,87.675,76.9375,10.737499999999995,609674.0,0.95,56.0,86.15384615384616,6.153846153846154,17747.236476043276,50956.17857142857
57,609676,DUNBAR HS,60616,41.84022557,-87.61763743,9,DOUGLAS,4,1,53021,447,0.9351230425055927,0.9910514541387024,3,85.075,68.7625,16.3125,,,,,,14801.434004474273,
58,609678,JONES HS,60605,41.87306592,-87.62767532,6,LOOP,4,38,47021,1929,0.3727319854847071,0.4380508035251426,7,92.2,90.1375,2.0625,,,,,,8935.274753758424,
59,609679,PROSSER HS,60639,41.9200594,-87.76104832,3,BELMONT CRAGIN,36,19,53041,1150,0.888695652173913,0.9739130434782608,3,88.35,83.625,4.724999999999994,,,,,,12003.240869565218,
60,609680,PAYTON HS,60610,41.90157517,-87.63538477,6,NEAR NORTH SIDE,27,37,70020,1230,0.3024390243902439,0.3333333333333333,3,92.45,91.7375,0.7124999999999773,,,,,,10022.534146341464,
61,609682,RICHARDS HS,60609,41.80288138,-87.66227785,8,NEW CITY,20,59,53051,273,0.8644688644688645,0.9413919413919414,3,78.0875,70.8125,7.275000000000006,,,,,,16548.14285714286,
62,609691,NORTH-GRAND HS,60639,41.91167369,-87.73523756,5,HUMBOLDT PARK,36,24,46431,1066,0.8911819887429644,0.9765478424015008,2,88.275,80.425,7.850000000000008,609691.0,1.0,63.0,96.92307692307692,6.153846153846154,11920.01688555347,54607.15873015873
63,609692,SIMEON HS,60620,41.74578123,-87.63541037,11,CHATHAM,21,40,53061,1142,0.9133099824868652,0.9921190893169878,2,87.1625,79.9,7.262499999999989,,,,,,12903.678633975482,
64,609693,WESTINGHOUSE HS,60624,41.8899772,-87.70733231,5,HUMBOLDT PARK,28,24,53071,1194,0.7696817420435511,0.8802345058626466,2,91.675,85.0375,6.637500000000003,,,,,,10704.509212730318,
65,609694,HANCOCK HS,60629,41.79146391,-87.72447046,8,WEST ELSDON,13,60,46021,1003,0.6889332003988036,0.9142572283150548,3,91.525,92.55,-1.0250000000000057,,,,,,10025.139581256231,
66,609695,AMUNDSEN HS,60625,41.97506726,-87.67948421,2,LINCOLN SQUARE,40,6,46031,1488,0.4092741935483871,0.508736559139785,2,90.9625,84.375,6.587500000000006,,,,,,10330.239247311827,
67,609698,BOGAN HS,60652,41.74937561,-87.72109745,10,ASHBURN,18,69,46041,637,0.7974882260596546,0.978021978021978,3,86.8125,74.375,12.4375,,,,,,15763.430141287285,
68,609704,FARRAGUT HS,60623,41.84855987,-87.70870563,7,SOUTH LAWNDALE,22,32,53091,453,0.9315673289183224,0.9801324503311258,3,86.5875,70.3375,16.25,,,,,,21831.973509933774,
69,609705,FENGER HS,60628,41.68995073,-87.63757205,13,ROSELAND,34,45,46111,237,0.7848101265822784,1.0,1,87.38749999999999,66.5625,20.82499999999999,,,,,,20664.071729957806,
70,609708,FOREMAN HS,60641,41.93979677,-87.75416654,1,PORTAGE PARK,31,15,46131,583,0.823327615780446,0.9451114922813036,4,84.95,73.775,11.174999999999995,,,,,,16444.576329331045,
71,609709,GAGE PARK HS,60629,41.79101284,-87.68895394,8,GAGE PARK,15,61,46141,330,0.8393939393939394,0.9818181818181818,3,89.6125,77.6875,11.924999999999995,609709.0,1.0,26.0,40.0,1.5384615384615383,17495.17575757576,40703.38461538462
72,609710,HARLAN HS,60628,41.71837235,-87.62062344,12,ROSELAND,9,45,51021,272,0.8308823529411765,0.9963235294117648,8,82.55000000000001,70.26249999999999,12.287500000000025,,,,,,20369.6875,
73,609712,HIRSCH HS,60619,41.75374796,-87.60172727,12,GREATER GRAND CROSSING,8,67,47031,104,0.625,0.9903846153846154,0,78.325,64.45,13.875,,,,,,29682.30769230769,
74,609713,HYDE PARK HS,60637,41.78225693,-87.58661501,9,WOODLAWN,5,9,46171,701,0.9072753209700428,0.9914407988587732,7,86.82499999999999,79.0375,7.787499999999994,609713.0,1.0,55.0,84.61538461538461,3.076923076923077,14710.22539229672,56312.98181818182
75,609715,KELLY HS,60632,41.81872906,-87.69463866,8,BRIGHTON PARK,12,55,46181,1716,0.9213286713286714,0.8624708624708625,3,90.0375,78.15,11.887499999999989,609715.0,1.0,122.0,187.69230769230768,6.153846153846154,12386.438228438228,63613.10655737705
76,609716,KELVYN PARK HS,60639,41.9279184,-87.73599882,4,HERMOSA,31,21,46191,491,0.8370672097759674,0.9613034623217924,2,81.61250000000001,85.3375,-3.7249999999999934,609716.0,1.0,32.0,49.23076923076923,2.307692307692308,13618.01018329939,53891.53125
77,609718,KENNEDY HS,60638,41.78996125,-87.78083976,10,GARFIELD RIDGE,13,53,46201,1621,0.6711906230721777,0.850709438618137,3,89.15,81.19999999999999,7.950000000000017,,,,,,10175.724244293646,
78,609719,LAKE VIEW HS,60613,41.95476407,-87.66895269,2,LAKE VIEW,47,57,46211,1335,0.7925093632958802,0.8621722846441947,3,86.6625,78.1875,8.474999999999994,609719.0,1.0,89.0,136.92307692307693,7.6923076923076925,11878.650187265917,56732.247191011236
79,609720,LANE TECH HS,60618,41.94664458,-87.69101263,4,NORTH CENTER,47,46,46221,4476,0.3534405719392314,0.4110813226094727,4,93.0125,92.0125,0.9999999999999858,,,,,,8002.222073279714,
80,609722,MANLEY HS,60612,41.87093896,-87.69989559,5,EAST GARFIELD PARK,28,28,53111,71,0.7464788732394366,1.0,3,75.45,60.5,14.950000000000005,609722.0,1.0,13.0,20.0,1.5384615384615383,44462.35211267605,53257.46153846154
81,609723,MARSHALL HS,60624,41.87844409,-87.70805007,5,EAST GARFIELD PARK,28,28,47041,194,0.8402061855670103,0.9845360824742267,4,75.55,60.8,14.749999999999991,,,,,,22315.0,
82,609724,MATHER HS,60659,41.98758868,-87.7024964,2,WEST RIDGE,40,20,46241,1610,0.7888198757763976,0.6285714285714286,3,88.775,82.57499999999999,6.200000000000017,,,,,,10825.254658385093,
83,609725,MORGAN PARK HS,60643,41.69203501,-87.66565755,10,MORGAN PARK,19,74,46251,1075,0.7488372093023256,0.9897674418604652,2,83.42500000000001,74.7625,8.662500000000009,609725.0,1.0,87.0,133.84615384615384,3.076923076923077,11565.167441860465,67748.01149425287
84,609726,BROOKS HS,60628,41.69276253,-87.61635261,13,ROSELAND,9,45,47051,965,0.6414507772020726,0.978238341968912,1,88.9,87.55,1.3500000000000083,,,,,,11205.294300518135,
85,609727,PHILLIPS HS,60653,41.82387997,-87.61979635,9,DOUGLAS,3,1,46261,441,0.7709750566893424,0.9206349206349206,3,82.3125,59.825,22.4875,,,,,,17896.031746031746,
86,609728,ROOSEVELT HS,60625,41.96482788,-87.71481862,1,ALBANY PARK,33,14,46271,1072,0.7985074626865671,0.8395522388059702,3,89.1125,80.8125,8.299999999999997,,,,,,11785.759328358208,
87,609729,SCHURZ HS,60641,41.94636454,-87.73561211,1,IRVING PARK,45,16,46281,1279,0.856137607505864,0.924941360437842,2,85.5125,74.82499999999999,10.687500000000014,,,,,,14533.664581704457,
88,609730,SENN HS,60660,41.98902854,-87.66713619,2,EDGEWATER,48,76,47061,1508,0.7241379310344828,0.6631299734748011,3,89.88749999999999,85.4625,4.424999999999983,,,,,,10868.024535809018,
89,609732,STEINMETZ HS,60634,41.93563359,-87.78351523,3,BELMONT CRAGIN,36,19,46291,1131,0.7851458885941645,0.924845269672856,3,86.625,74.88749999999999,11.737500000000011,,,,,,12389.227232537578,
90,609733,SULLIVAN HS,60626,42.00268756,-87.66919215,2,ROGERS PARK,49,10,46301,664,0.7725903614457831,0.7289156626506024,2,84.65,76.19999999999999,8.450000000000017,,,,,,14163.951807228916,
91,609734,TAFT HS,60631,41.98296099,-87.79154725,1,NORWOOD PARK,41,36,46311,4296,0.4888268156424581,0.4632216014897579,2,89.325,85.2625,4.0625,,,,,,8568.71997206704,
92,609735,TILDEN HS,60609,41.80751007,-87.64296648,8,NEW CITY,11,59,53121,211,0.8199052132701422,0.8578199052132701,3,81.6,65.7,15.899999999999991,,,,,,20430.90047393365,
93,609737,VON STEUBEN HS,60625,41.97318505,-87.71338625,1,NORTH PARK,39,13,47081,1635,0.6422018348623854,0.653211009174312,4,92.3125,87.875,4.4375,,,,,,10103.285626911314,
94,609738,LINCOLN PARK HS,60614,41.91826831,-87.64600936,4,LINCOLN PARK,43,68,46321,2063,0.4498303441589917,0.5302956858943286,5,89.9625,86.5,3.4625000000000057,609738.0,1.0,131.0,201.53846153846155,9.230769230769232,9801.507998061075,67722.34351145038
95,609739,WASHINGTON HS,60617,41.68813694,-87.5375703,13,EAST SIDE,10,49,46331,1490,0.8369127516778524,0.951006711409396,1,88.625,80.67500000000001,7.949999999999989,,,,,,10619.128187919463,
96,609740,WELLS HS,60622,41.89899471,-87.66748287,6,WEST TOWN,1,25,51071,310,0.6903225806451613,0.8258064516129032,3,88.0125,77.7875,10.225000000000009,609740.0,0.95,30.0,46.15384615384615,4.615384615384616,18189.96129032258,58334.4
97,609741,HUBBARD HS,60629,41.78052639,-87.71801374,10,WEST LAWN,23,63,46341,1711,0.8854471069549971,0.9848042080654588,3,90.1125,84.2,5.9125000000000085,,,,,,10597.203974284044,
98,609744,NORTHSIDE LEARNING HS,60659,41.98297252,-87.72238622,1,NORTH PARK,39,13,49021,264,0.7386363636363636,0.7159090909090909,0,91.2375,84.275,6.962499999999992,609744.0,0.94,33.0,50.76923076923077,1.5384615384615383,35938.583333333336,12640.424242424242
99,609745,SOUTHSIDE HS,60636,41.75985243,-87.67594677,11,WEST ENGLEWOOD,17,65,49031,350,0.8457142857142858,0.9628571428571427,0,89.25,81.55,7.700000000000003,609745.0,0.94,33.0,50.76923076923077,1.5384615384615383,30652.125714285714,9577.848484848484
100,609746,KENWOOD HS,60615,41.80377212,-87.59042089,9,KENWOOD,4,5,46361,2299,0.5628534145280557,0.8995215311004785,5,92.3625,89.0625,3.300000000000012,609746.0,1.0,101.0,155.3846153846154,7.6923076923076925,8243.951718138322,66257.68316831683
101,609748,YORK HS,60608,41.84253335,-87.69526102,7,SOUTH LAWNDALE,24,32,49041,184,0.6684782608695652,0.9891304347826086,0,72.4375,62.225,10.212500000000006,,,,,,46261.288043478264,
102,609749,NORTHSIDE PREP HS,60625,41.98131528,-87.7087078,1,NORTH PARK,40,13,46061,1041,0.3544668587896253,0.3429394812680115,2,93.85,92.8875,0.9624999999999916,609749.0,0.96,64.0,98.46153846153848,6.153846153846154,10208.184438040345,73946.9375
103,609751,KING HS,60653,41.81367545,-87.60387386,9,KENWOOD,4,5,46371,586,0.8054607508532423,0.9709897610921502,3,88.9875,90.4375,-1.4500000000000028,,,,,,12997.098976109215,
104,609753,CHICAGO AGRICULTURE HS,60655,41.69122074,-87.71776967,10,MOUNT GREENWOOD,19,73,47091,780,0.5025641025641026,0.7230769230769231,3,93.75,90.075,3.674999999999997,,,,,,15153.465384615385,
105,609754,CHICAGO MILITARY HS,60653,41.83055498,-87.61921554,9,DOUGLAS,3,1,70070,227,0.8810572687224669,0.9559471365638766,4,90.8625,82.5,8.362499999999997,609754.0,0.95,22.0,33.84615384615385,1.5384615384615383,21466.39207048458,63207.09090909091
106,609755,YOUNG HS,60607,41.87860253,-87.66423334,6,NEAR WEST SIDE,27,29,47101,2149,0.3624941833410889,0.4564913913448115,3,94.825,92.7625,2.062499999999986,,,,,,9428.691484411354,
107,609756,CURIE HS,60632,41.80306021,-87.72204165,8,ARCHER HEIGHTS,14,54,53101,2903,0.8653117464691699,0.9634860489149156,2,87.55000000000001,80.65,6.900000000000006,,,,,,10726.74784705477,
108,609759,CLEMENTE HS,60622,41.90262579,-87.68690615,5,WEST TOWN,1,25,51091,595,0.826890756302521,0.9512605042016806,2,80.05,68.5125,11.537499999999994,,,,,,16137.887394957983,
109,609760,CARVER MILITARY HS,60627,41.65628995,-87.59062039,13,RIVERDALE,9,51,46381,406,0.874384236453202,0.9852216748768472,1,92.05,84.5625,7.487499999999997,,,,,,15090.84236453202,
110,609761,CORLISS HS,60628,41.70665962,-87.60121588,13,PULLMAN,9,47,46391,288,0.8715277777777778,0.9930555555555556,4,84.6375,75.7,8.9375,,,,,,20554.36111111111,
111,609762,JULIAN HS,60643,41.70585894,-87.65374921,10,WASHINGTON HEIGHTS,34,72,46401,426,0.8380281690140845,0.9859154929577464,5,80.7625,73.23750000000001,7.524999999999991,,,,,,17113.244131455398,
112,609764,JUAREZ HS,60608,41.85267014,-87.66433931,7,LOWER WEST SIDE,25,33,46421,1593,0.8939108600125549,0.9692404268675456,3,85.11250000000001,77.94999999999999,7.162500000000023,,,,,,11409.842435655995,
113,609766,VAUGHN HS,60641,41.9603638,-87.76466317,1,PORTAGE PARK,38,15,49081,194,0.7474226804123711,0.7731958762886598,0,87.275,83.30000000000001,3.9749999999999934,,,,,,41700.52577319588,
114,609769,GRAHAM HS,60616,41.84967542,-87.62531482,6,NEAR SOUTH SIDE,3,34,49101,238,0.9201680672268908,0.9117647058823528,0,86.55,81.75,4.799999999999997,,,,,,27902.5756302521,
115,609772,ADDAMS,60617,41.6987388,-87.53297604,13,EAST SIDE,10,49,22021,559,0.7209302325581395,0.964221824686941,0,89.5,84.9,4.599999999999994,,,,,,12403.141323792486,
116,609773,AGASSIZ,60657,41.9341263,-87.65622867,4,LAKE VIEW,44,57,22031,297,0.3131313131313131,0.4781144781144781,2,90.15,88.05000000000001,2.0999999999999943,,,,,,19245.892255892257,
117,609777,ARMOUR,60608,41.83385391,-87.65065316,6,BRIDGEPORT,11,58,22061,246,0.7317073170731707,0.8252032520325203,0,90.15,88.94999999999999,1.200000000000017,,,,,,17731.585365853658,
118,609779,ARMSTRONG G,60645,42.01014998,-87.68444183,2,WEST RIDGE,50,20,22081,1236,0.7483818770226537,0.6529126213592233,1,90.5,86.5,4.0,,,,,,10229.259708737864,
119,609780,MARINE LEADERSHIP AT AMES HS,60647,41.91604463,-87.72174232,4,LOGAN SQUARE,26,23,41111,686,0.9300291545189504,0.9693877551020408,1,93.25,85.35,7.900000000000006,609780.0,0.98,60.0,92.3076923076923,4.615384615384616,14365.010204081633,63998.46666666667
120,609782,AUDUBON,60618,41.94506223,-87.68104105,4,NORTH CENTER,47,46,22091,573,0.0890052356020942,0.1884816753926701,2,94.35,93.75,0.5999999999999943,,,,,,9094.357766143106,
121,609783,JEFFERSON HS,60612,41.86783229,-87.68041755,6,NEAR WEST SIDE,27,29,30011,164,0.6707317073170732,0.9695121951219512,0,97.9,95.25,2.6500000000000057,,,,,,53469.29268292683,
122,609786,AVALON PARK,60619,41.74824699,-87.59165381,12,AVALON PARK,8,41,22101,232,0.7456896551724138,0.9956896551724138,3,93.5,76.75,16.75,609786.0,0.96,15.0,23.07692307692308,1.5384615384615383,14585.418103448275,66722.86666666667
123,609788,BARNARD,60643,41.70513101,-87.65807422,10,BEVERLY,19,71,22131,267,0.6741573033707865,0.951310861423221,0,85.35,84.6,0.75,,,,,,13922.591760299625,
124,609789,BARRY,60641,41.93251058,-87.73938835,4,HERMOSA,31,21,22141,439,0.7539863325740319,0.9703872437357632,1,89.1,88.44999999999999,0.6500000000000057,,,,,,13882.995444191343,
125,609790,BARTON,60620,41.75419385,-87.67092713,11,AUBURN GRESHAM,17,70,22151,402,0.7313432835820896,0.9925373134328358,2,83.3,82.5,0.7999999999999972,,,,,,13110.291044776119,
126,609791,BASS,60621,41.77424645,-87.65353242,11,ENGLEWOOD,16,66,22161,348,0.8362068965517241,0.9971264367816092,1,76.75,63.6,13.15,,,,,,15728.522988505747,
127,609792,BATEMAN,60618,41.95821984,-87.70215096,1,IRVING PARK,33,16,22171,886,0.600451467268623,0.7370203160270881,1,93.45,90.55,2.8999999999999915,,,,,,10518.803611738149,
128,609793,NICHOLSON,60621,41.78494238,-87.64745284,11,ENGLEWOOD,16,66,22181,451,0.7960088691796009,0.9933481152993348,3,85.69999999999999,65.3,20.39999999999999,,,,,,13825.59201773836,
129,609796,BEAUBIEN,60630,41.97239395,-87.75756504,1,JEFFERSON PARK,45,11,22201,970,0.3731958762886598,0.388659793814433,10,90.2,86.1,4.1000000000000085,,,,,,9888.439175257732,
130,609797,BEIDLER,60612,41.88532104,-87.70585481,5,EAST GARFIELD PARK,27,28,22211,256,0.84375,1.0,1,91.2,84.30000000000001,6.899999999999992,,,,,,17302.91015625,
131,609798,BELDING,60641,41.95893849,-87.73401973,1,IRVING PARK,39,16,22221,547,0.4625228519195612,0.413162705667276,1,88.5,91.5,-3.0,,,,,,10859.493601462524,
132,609800,BENNETT,60628,41.71043495,-87.61739046,13,ROSELAND,9,45,22241,266,0.6729323308270677,0.9887218045112782,4,93.4,83.6,9.800000000000011,,,,,,14615.770676691729,
133,609803,BLAINE,60613,41.95078052,-87.66496784,4,LAKE VIEW,44,57,22261,631,0.1030110935023771,0.1806656101426307,1,92.15,89.8,2.3500000000000085,,,,,,13474.293185419969,
134,609804,BOONE,60645,42.00341161,-87.69746282,2,WEST RIDGE,50,20,22271,732,0.755464480874317,0.5,1,92.15,87.69999999999999,4.450000000000017,,,,,,12384.643442622952,
135,609805,JOPLIN,60620,41.74933916,-87.66936565,11,AUBURN GRESHAM,17,70,22281,331,0.824773413897281,1.0,2,93.0,84.9,8.099999999999994,,,,,,14870.731117824773,
136,609806,BRADWELL,60649,41.75436513,-87.55714197,12,SOUTH SHORE,7,39,22291,433,0.7759815242494227,0.9930715935334872,1,90.55,76.7,13.849999999999994,,,,,,13391.293302540416,
137,609808,HALEY,60628,41.68665997,-87.63363214,13,ROSELAND,34,45,22301,445,0.8292134831460675,0.995505617977528,3,89.25,86.69999999999999,2.550000000000012,,,,,,14111.487640449439,
138,609809,BRENTANO,60647,41.9309661,-87.6962942,4,LOGAN SQUARE,32,23,22311,683,0.3748169838945827,0.5505124450951684,1,90.1,86.95,3.1499999999999915,,,,,,9358.487554904832,
139,609810,BRIDGE,60634,41.94911439,-87.79866892,1,DUNNING,38,17,22321,1090,0.5311926605504587,0.5844036697247706,2,89.65,88.95,0.7000000000000028,,,,,,8771.418348623853,
140,609811,BRIGHT,60617,41.69972622,-87.56208423,13,SOUTH DEERING,10,48,22331,227,0.6519823788546255,0.986784140969163,0,86.35,84.7,1.6499999999999917,,,,,,22424.69603524229,
141,609812,BROWN W,60612,41.88299679,-87.67068239,6,NEAR WEST SIDE,27,29,22351,217,0.7004608294930875,0.976958525345622,2,86.2,81.05000000000001,5.149999999999992,,,,,,21376.04608294931,
142,609815,BOUCHET,60649,41.76084748,-87.57607486,12,SOUTH SHORE,7,39,22371,597,0.7738693467336684,0.9865996649916248,4,86.4,83.25,3.1500000000000057,,,,,,13617.356783919598,
143,609817,BUDLONG,60625,41.97575433,-87.69655603,2,LINCOLN SQUARE,40,6,22391,681,0.5374449339207048,0.4493392070484581,2,87.45,90.05000000000001,-2.6000000000000085,,,,,,11517.895741556535,
144,609818,BURBANK,60639,41.91759814,-87.78269957,3,BELMONT CRAGIN,29,19,22401,706,0.7960339943342776,0.9674220963172804,1,88.6,88.45,0.1499999999999914,,,,,,13856.00566572238,
145,609819,BURKE,60615,41.79675956,-87.61614052,9,WASHINGTON PARK,3,7,22411,277,0.7328519855595668,0.9638989169675092,2,83.85,82.0,1.8499999999999943,,,,,,18263.602888086643,
146,609827,BURNSIDE,60619,41.72848064,-87.60743532,12,CHATHAM,8,40,29021,308,0.7337662337662337,0.9967532467532468,1,86.75,82.25,4.5,609827.0,0.91,29.0,44.61538461538462,1.5384615384615383,17936.753246753247,70843.13793103448
147,609829,BURROUGHS,60632,41.82886791,-87.69245663,8,BRIGHTON PARK,12,55,22481,324,0.8611111111111112,0.9506172839506172,1,93.75,84.5,9.25,,,,,,16048.978395061727,
148,609830,BRUNSON,60651,41.89766257,-87.76560566,3,AUSTIN,29,26,22491,425,0.6988235294117647,0.9882352941176472,2,84.15,71.0,13.150000000000006,,,,,,13349.371764705882,
149,609833,CALDWELL,60617,41.73922636,-87.58072903,12,AVALON PARK,8,41,22511,220,0.7454545454545455,1.0,3,89.55,72.8,16.75,,,,,,15059.690909090908,
150,609834,LITTLE VILLAGE,60623,41.84369812,-87.71731895,7,SOUTH LAWNDALE,22,32,22521,609,0.8423645320197044,0.9967159277504104,2,93.4,90.5,2.9000000000000057,609834.0,0.96,47.0,72.3076923076923,3.076923076923077,13647.238095238095,52411.89361702128
151,609835,CAMERON,60651,41.90379212,-87.71792664,5,HUMBOLDT PARK,26,24,22531,577,0.8336221837088388,0.9861351819757366,2,91.05,85.9,5.150000000000006,,,,,,13930.720970537262,
152,609836,CANTY,60634,41.94800703,-87.8292957,1,DUNNING,38,17,22541,827,0.4183796856106409,0.5405078597339782,1,86.65,85.0,1.6500000000000057,,,,,,10389.807738814994,
153,609839,CARROLL,60652,41.74251663,-87.69601208,10,ASHBURN,18,69,22571,425,0.72,0.971764705882353,2,88.15,83.6,4.550000000000011,,,,,,13352.350588235295,
154,609842,CARSON,60629,41.79327214,-87.68779954,8,GAGE PARK,15,61,22601,808,0.8131188118811881,0.9913366336633664,2,94.4,88.75,5.650000000000006,,,,,,11747.72400990099,
155,609844,CARTER,60637,41.78982791,-87.62245275,9,WASHINGTON PARK,20,7,22611,291,0.8109965635738832,0.9759450171821306,2,83.4,90.85,-7.449999999999989,,,,,,13066.546391752578,
156,609845,CARVER G,60827,41.65370212,-87.59951563,13,RIVERDALE,9,51,22621,476,0.8529411764705882,1.0,1,87.0,72.75,14.25,,,,,,11846.987394957983,
157,609850,GREELEY,60613,41.95280951,-87.65097987,4,LAKE VIEW,46,57,22661,314,0.7452229299363057,0.8630573248407644,2,89.5,88.45,1.0499999999999972,,,,,,17756.93949044586,
158,609851,CHALMERS,60608,41.86643525,-87.69525937,5,NORTH LAWNDALE,28,30,22671,205,0.848780487804878,0.9853658536585366,2,92.2,86.5,5.700000000000003,,,,,,20601.131707317072,
159,609852,CHAPPELL,60625,41.9758943,-87.68326359,2,LINCOLN SQUARE,40,6,22681,541,0.3345656192236599,0.4639556377079482,4,89.9,87.95,1.9500000000000028,,,,,,11919.216266173753,
160,609853,CHASE,60647,41.91799265,-87.69456225,4,LOGAN SQUARE,1,23,22701,379,0.6464379947229552,0.7783641160949868,2,84.0,78.65,5.349999999999994,,,,,,19378.007915567283,
161,609854,CHOPIN,60622,41.89671269,-87.68893676,5,WEST TOWN,26,25,22721,286,0.7902097902097902,0.8811188811188811,2,87.0,80.3,6.700000000000003,,,,,,21426.482517482516,
162,609856,CLAY,60633,41.65455815,-87.5446136,13,HEGEWISCH,10,52,22731,548,0.7554744525547445,0.9087591240875912,0,86.1,79.55,6.549999999999997,,,,,,13128.180656934306,
163,609857,CLEVELAND,60618,41.95204212,-87.70644253,1,IRVING PARK,33,16,22741,470,0.6680851063829787,0.8170212765957446,1,86.75,88.65,-1.9000000000000057,,,,,,15715.053191489362,
164,609859,CLINTON,60659,41.99254136,-87.69835995,2,WEST RIDGE,40,20,22751,1011,0.7467853610286844,0.420375865479723,0,92.8,88.15,4.649999999999992,,,,,,10682.230464886252,
165,609862,COLES,60617,41.74141281,-87.56596977,12,SOUTH CHICAGO,7,42,22771,265,0.7320754716981132,0.9924528301886792,2,87.19999999999999,80.69999999999999,6.5,,,,,,17602.037735849055,
166,609863,COLUMBUS,60622,41.89956578,-87.68193805,5,WEST TOWN,2,25,22791,292,0.3767123287671233,0.3219178082191781,2,92.1,91.55,0.5499999999999972,,,,,,9026.102739726028,
167,609865,JORDAN,60626,42.01708759,-87.67776252,2,ROGERS PARK,49,10,22811,500,0.726,0.774,4,90.45,89.55000000000001,0.8999999999999915,609865.0,0.93,33.0,50.76923076923077,1.5384615384615383,12315.898,50691.42424242424
168,609867,COOPER,60608,41.85603119,-87.66722708,7,LOWER WEST SIDE,25,33,22831,404,0.8663366336633663,0.9925742574257426,3,89.55,87.69999999999999,1.8500000000000083,,,,,,16338.314356435643,
169,609870,CORKERY,60623,41.84560242,-87.73119287,7,SOUTH LAWNDALE,22,32,22851,431,0.8375870069605569,0.974477958236659,2,92.0,88.7,3.299999999999997,,,,,,13811.139211136891,
170,609871,VICK,60655,41.68819084,-87.6856766,10,MORGAN PARK,19,74,26731,344,0.1715116279069767,0.5843023255813954,0,86.30000000000001,83.0,3.300000000000012,,,,,,15351.18023255814,
171,609872,PEREZ,60608,41.85602872,-87.65798013,7,LOWER WEST SIDE,25,33,22861,267,0.7340823970037453,0.9588014981273408,3,90.4,90.95,-0.549999999999983,,,,,,16274.243445692884,
172,609873,CROWN,60623,41.85266349,-87.71247015,5,NORTH LAWNDALE,24,30,31041,118,0.8559322033898306,0.9915254237288136,1,87.44999999999999,82.80000000000001,4.649999999999977,,,,,,27955.79661016949,
173,609874,DIRKSEN,60656,41.97371478,-87.84104144,1,OHARE,41,75,22871,1096,0.5812043795620438,0.1660583941605839,2,87.0,87.95,-0.9500000000000028,,,,,,9239.1049270073,
174,609875,DARWIN,60647,41.92332272,-87.70541291,4,LOGAN SQUARE,32,23,22881,499,0.7074148296593187,0.8817635270541082,1,92.25,90.25,2.0,,,,,,13034.31863727455,
175,609876,DAVIS N,60632,41.82185161,-87.70020216,8,BRIGHTON PARK,12,55,22891,513,0.7914230019493177,0.9629629629629628,2,90.75,87.85,2.9000000000000057,,,,,,16410.29044834308,
176,609879,DAWES,60652,41.74507775,-87.71735342,10,ASHBURN,18,69,22901,977,0.8464687819856704,0.9815762538382804,2,87.3,85.35,1.9500000000000028,,,,,,11770.547594677584,
177,609883,DENEEN,60619,41.76249026,-87.62334459,12,GREATER GRAND CROSSING,6,67,22931,479,0.755741127348643,1.0,2,86.80000000000001,78.65,8.150000000000006,,,,,,11731.509394572025,
178,609884,DEVER,60634,41.94255167,-87.81313153,1,DUNNING,38,17,22941,754,0.506631299734748,0.6127320954907162,0,90.3,89.5,0.8000000000000114,,,,,,10033.363395225464,
179,609885,DEWEY,60609,41.79564568,-87.64265158,11,NEW CITY,20,59,22951,240,0.8416666666666667,0.9875,3,90.5,78.9,11.599999999999994,609885.0,0.91,27.0,41.53846153846154,1.5384615384615383,19577.429166666665,36441.11111111111
180,609887,DIXON,60619,41.74366924,-87.60997887,12,CHATHAM,6,40,22971,467,0.7130620985010707,0.9978586723768736,2,86.05000000000001,86.25,-0.1999999999999886,,,,,,11728.71948608137,
181,609891,DOOLITTLE,60616,41.83112063,-87.61227454,9,DOUGLAS,4,1,22991,257,0.8054474708171206,1.0,3,90.95,85.55,5.399999999999992,,,,,,14073.953307392996,
182,609893,DORE,60638,41.78095446,-87.78760442,10,CLEARING,13,62,23001,726,0.4573002754820937,0.7699724517906336,0,88.65,89.2,-0.5499999999999972,,,,,,11904.59779614325,
183,609894,DRAKE,60616,41.84404331,-87.62855345,9,DOUGLAS,3,1,23011,257,0.8599221789883269,0.9922178988326849,1,90.55,81.85,8.700000000000003,,,,,,17868.33073929961,
184,609896,DRUMMOND,60622,41.9159138,-87.6744946,6,LOGAN SQUARE,32,23,23021,305,0.1344262295081967,0.3245901639344262,3,92.5,88.3,4.200000000000003,,,,,,12612.0,
185,609897,EARLE,60636,41.78122517,-87.67554666,11,WEST ENGLEWOOD,16,65,23031,247,0.7935222672064778,0.9878542510121456,3,83.19999999999999,71.6,11.599999999999994,,,,,,18191.2024291498,
186,609900,CURTIS,60628,41.6854184,-87.62165261,13,ROSELAND,9,45,23061,376,0.7845744680851063,0.9840425531914894,3,89.65,84.4,5.25,,,,,,14061.577127659575,
187,609902,METCALFE,60628,41.66944402,-87.63430552,13,WEST PULLMAN,34,50,31061,328,0.7347560975609756,0.9878048780487804,2,84.75,71.1,13.650000000000006,,,,,,14708.942073170732,
188,609903,EDWARDS,60632,41.80554154,-87.72585618,8,ARCHER HEIGHTS,14,54,23081,1252,0.7028753993610224,0.9648562300319488,2,89.75,83.1,6.650000000000006,,,,,,12870.955271565495,
189,609904,ELLINGTON,60644,41.88552958,-87.76658938,3,AUSTIN,29,26,23101,440,0.7454545454545455,0.9954545454545456,1,83.5,74.1,9.400000000000006,,,,,,14941.415909090909,
190,609907,ERICSON,60624,41.87574412,-87.71580443,5,EAST GARFIELD PARK,28,28,29051,355,0.8253521126760563,0.9971830985915492,3,90.45,75.05000000000001,15.399999999999991,,,,,,16405.18028169014,
191,609908,ESMOND,60643,41.68941961,-87.66915867,10,MORGAN PARK,19,74,23131,245,0.7959183673469388,0.9918367346938776,1,92.15,84.9,7.25,609908.0,0.95,18.0,27.692307692307693,1.5384615384615383,15619.14693877551,56915.11111111111
192,609909,EVERETT,60608,41.83155516,-87.6813103,8,MCKINLEY PARK,12,56,23141,113,0.6460176991150443,0.8407079646017699,4,91.55,87.65,3.9000000000000057,,,,,,28098.53097345133,
193,609910,FALCONER,60641,41.93578457,-87.74933063,3,BELMONT CRAGIN,31,19,23151,895,0.7877094972067039,0.9564245810055866,1,92.2,86.8,5.400000000000006,,,,,,11871.410055865921,
194,609912,FARNSWORTH,60630,41.97979006,-87.76607166,1,JEFFERSON PARK,45,11,23161,486,0.5267489711934157,0.4773662551440329,3,87.15,88.95,-1.7999999999999972,,,,,,16153.220164609054,
195,609917,FERNWOOD,60628,41.71118362,-87.64041365,13,WASHINGTON HEIGHTS,34,72,23201,268,0.8022388059701493,0.996268656716418,2,88.9,87.35,1.5500000000000114,609917.0,0.95,17.0,26.15384615384616,1.5384615384615383,11896.373134328358,52162.23529411765
196,609919,FISKE,60637,41.78518282,-87.6086329,9,WOODLAWN,20,9,23221,344,0.7122093023255814,0.9825581395348836,3,89.45,77.85,11.600000000000009,,,,,,17962.802325581397,
197,609920,KANOON,60623,41.85077148,-87.70511208,7,SOUTH LAWNDALE,12,32,29071,418,0.8516746411483254,1.0,2,92.85,87.45,5.399999999999992,,,,,,14418.983253588516,
198,609921,TELPOCHCALLI,60623,41.84794743,-87.69600588,7,SOUTH LAWNDALE,12,32,23231,219,0.7579908675799086,0.9360730593607306,2,89.75,85.0,4.75,609921.0,0.96,21.0,32.30769230769231,1.5384615384615383,18498.319634703195,61370.142857142855
199,609922,BELMONT-CRAGIN,60639,41.92160396,-87.75795257,3,BELMONT CRAGIN,36,19,26771,499,0.6693386773547094,0.9799599198396792,2,86.25,85.1,1.1500000000000057,609922.0,0.96,30.0,46.15384615384615,1.5384615384615383,13183.837675350702,60026.46666666667
200,609924,FORT DEARBORN,60620,41.72967267,-87.65548116,11,WASHINGTON HEIGHTS,21,72,23241,329,0.7051671732522796,0.993920972644377,1,92.8,83.6,9.200000000000005,609924.0,0.96,22.0,33.84615384615385,1.5384615384615383,16646.911854103342,54935.22727272727
201,609925,KELLMAN,60612,41.87016772,-87.7021629,5,EAST GARFIELD PARK,28,28,23251,206,0.8592233009708737,0.9902912621359224,2,91.85,82.2,9.649999999999991,,,,,,16891.898058252427,
202,609927,FOSTER PARK,60620,41.73842548,-87.66809931,11,AUBURN GRESHAM,21,70,23261,297,0.7070707070707071,0.9966329966329966,3,83.7,85.55,-1.8499999999999943,609927.0,0.96,20.0,30.76923076923077,1.5384615384615383,17580.13468013468,45709.75
203,609928,FULLER,60653,41.8180034,-87.61178404,9,GRAND BOULEVARD,4,4,23271,319,0.7554858934169278,0.987460815047022,3,87.0,79.15,7.849999999999994,,,,,,13724.341692789969,
204,609929,FULTON,60609,41.79758027,-87.66843588,11,NEW CITY,16,59,23281,301,0.8338870431893688,0.9833887043189368,3,88.55000000000001,79.6,8.950000000000017,,,,,,16248.983388704319,
205,609930,FUNSTON,60647,41.91761651,-87.71689166,4,LOGAN SQUARE,26,23,23291,410,0.8634146341463415,0.9780487804878047,2,88.4,85.8,2.6000000000000085,,,,,,15303.326829268293,
206,609933,GALE,60626,42.02109056,-87.67193898,2,ROGERS PARK,49,10,31081,229,0.7554585152838428,0.868995633187773,10,85.9,81.65,4.25,,,,,,20603.524017467247,
207,609935,GALLISTEL,60617,41.706801,-87.53517531,13,EAST SIDE,10,49,29091,614,0.8175895765472313,0.985342019543974,0,90.2,88.75,1.4500000000000028,,,,,,13623.539087947882,
208,609938,GARY,60623,41.83706515,-87.71869664,7,SOUTH LAWNDALE,22,32,23311,768,0.8854166666666666,0.9895833333333334,2,91.6,85.5,6.099999999999994,,,,,,13209.069010416666,
209,609939,GILLESPIE,60619,41.72533228,-87.62371944,12,ROSELAND,9,45,23321,392,0.7474489795918368,0.9974489795918368,1,90.95,85.25,5.699999999999989,,,,,,14474.706632653062,
210,609941,RANDOLPH,60636,41.76061413,-87.67596551,11,WEST ENGLEWOOD,17,65,29111,331,0.7945619335347432,0.9969788519637462,2,81.55000000000001,72.55,9.000000000000014,,,,,,14860.561933534744,
211,609942,GOETHE,60647,41.92283101,-87.6928997,4,LOGAN SQUARE,1,23,23341,713,0.5245441795231417,0.699859747545582,2,89.4,84.95,4.450000000000003,,,,,,9963.532959326789,
212,609943,OWENS,60628,41.67061754,-87.62254566,13,WEST PULLMAN,9,50,23351,343,0.760932944606414,0.9620991253644317,1,91.95,76.85,15.100000000000009,,,,,,16844.897959183672,
213,609944,GRISSOM,60633,41.662481,-87.55330671,13,HEGEWISCH,10,52,23361,302,0.695364238410596,0.9039735099337748,0,88.8,86.05,2.75,,,,,,13137.970198675497,
214,609945,GOUDY,60640,41.97581653,-87.65791249,2,UPTOWN,48,31,23371,547,0.7184643510054844,0.583180987202925,2,87.45,91.5,-4.049999999999997,,,,,,14096.173674588665,
215,609947,GRAHAM ES,60609,41.81330373,-87.64334424,6,NEW CITY,11,59,23391,327,0.7920489296636085,0.72782874617737,3,84.05,77.4,6.649999999999992,,,,,,14472.743119266055,
216,609949,GRAY,60641,41.94876358,-87.7571156,1,PORTAGE PARK,45,15,23401,1004,0.7410358565737052,0.8565737051792829,2,86.5,87.4,-0.9000000000000057,,,,,,10732.1593625498,
217,609950,ORTIZ DE DOMINGUEZ,60623,41.83879052,-87.71719032,7,SOUTH LAWNDALE,22,32,23411,393,0.7022900763358778,0.9949109414758268,2,91.1,88.69999999999999,2.4000000000000057,,,,,,16521.648854961833,
218,609951,ARIEL,60653,41.81117346,-87.59750293,9,KENWOOD,4,5,23421,354,0.692090395480226,0.9915254237288136,1,87.30000000000001,78.9,8.400000000000006,609951.0,0.91,30.0,46.15384615384615,1.5384615384615383,16056.889830508475,50192.066666666666
219,609952,GREENE,60609,41.82966928,-87.67149237,8,MCKINLEY PARK,12,56,23431,303,0.7755775577557755,0.8943894389438944,1,89.45,88.30000000000001,1.1499999999999917,,,,,,15526.059405940594,
220,609954,GREGORY,60624,41.87074216,-87.71866613,5,EAST GARFIELD PARK,24,28,23441,281,0.8149466192170819,1.0,0,89.15,81.85,7.300000000000011,,,,,,18474.362989323843,
221,609955,GRESHAM,60620,41.73892016,-87.64502524,11,AUBURN GRESHAM,21,70,23451,332,0.8373493975903614,0.9969879518072288,3,83.1,89.2,-6.1000000000000085,,,,,,14038.222891566265,
222,609956,GRIMES,60638,41.77546426,-87.75880329,10,CLEARING,13,62,23461,389,0.6915167095115681,0.922879177377892,2,89.3,84.7,4.599999999999994,,,,,,13344.94087403599,
223,609958,GUNSAULUS,60632,41.81300737,-87.69936419,8,BRIGHTON PARK,15,55,29121,652,0.7760736196319018,0.9447852760736196,2,93.85,90.6,3.25,,,,,,11854.533742331289,
224,609959,HAINES,60616,41.84995832,-87.63380633,6,ARMOUR SQUARE,25,35,23481,527,0.7552182163187856,0.1612903225806451,3,94.65,90.2,4.450000000000017,,,,,,11805.565464895635,
225,609961,NINOS HEROES,60617,41.74375308,-87.55186172,12,SOUTH CHICAGO,7,42,31101,310,0.7129032258064516,1.0,3,82.1,75.0,7.099999999999994,609961.0,0.91,20.0,30.76923076923077,1.5384615384615383,14234.583870967743,58249.35
226,609963,HAMILTON,60657,41.94521966,-87.67086537,4,LAKE VIEW,47,57,23501,444,0.081081081081081,0.1576576576576576,3,95.9,96.25,-0.3499999999999943,,,,,,11993.853603603604,
227,609964,HAMLINE,60609,41.80724156,-87.66117466,8,NEW CITY,20,59,23511,542,0.8247232472324724,0.9797047970479704,3,91.8,79.75,12.050000000000011,,,,,,13117.632841328414,
228,609966,HAMMOND,60623,41.85271913,-87.6962433,7,SOUTH LAWNDALE,12,32,23531,231,0.8311688311688312,0.9696969696969696,2,89.5,78.1,11.400000000000006,,,,,,19413.35064935065,
229,609967,FINKL,60608,41.84921491,-87.68566784,7,LOWER WEST SIDE,25,33,23541,212,0.8726415094339622,0.9481132075471698,2,85.65,86.35,-0.6999999999999886,,,,,,21998.79245283019,
230,609968,MCAULIFFE,60647,41.91481634,-87.72393113,4,HERMOSA,26,21,23551,575,0.7652173913043478,0.9652173913043478,2,86.75,79.5,7.25,,,,,,11909.189565217392,
231,609969,HARTE,60637,41.79344724,-87.5868546,9,HYDE PARK,5,8,23561,327,0.6055045871559633,0.9327217125382264,0,87.5,85.35,2.1500000000000057,609969.0,0.96,18.0,27.692307692307693,1.5384615384615383,11635.039755351681,65765.38888888889
232,609971,HARVARD,60620,41.75734054,-87.63273687,11,GREATER GRAND CROSSING,6,67,23581,345,0.782608695652174,0.9971014492753624,2,81.25,77.5,3.75,,,,,,16476.08115942029,
233,609972,HAUGAN,60625,41.96402871,-87.72312804,1,ALBANY PARK,35,14,23591,889,0.766029246344207,0.8773903262092239,2,90.4,87.35,3.050000000000012,,,,,,11916.503937007874,
234,609973,ZAPATA,60623,41.8413938,-87.73431332,7,SOUTH LAWNDALE,22,32,23611,520,0.8038461538461539,0.9961538461538462,2,89.5,86.5,3.0,,,,,,15538.065384615385,
235,609975,HAY,60651,41.89917136,-87.75581325,3,AUSTIN,37,26,31111,265,0.8641509433962264,0.9849056603773584,2,88.6,83.80000000000001,4.799999999999983,,,,,,16621.316981132077,
236,609976,HAYT,60660,41.99454089,-87.66850377,2,EDGEWATER,48,76,23621,877,0.7046750285062714,0.6225769669327252,4,88.55000000000001,89.7,-1.1499999999999917,,,,,,11004.451539338654,
237,609977,WOODLAWN,60637,41.77336553,-87.594392,9,WOODLAWN,5,9,23631,186,0.6666666666666666,1.0,2,89.25,77.9,11.349999999999994,609977.0,0.93,12.0,18.461538461538463,1.5384615384615383,16043.677419354839,67967.0
238,609978,SMITH,60628,41.70755762,-87.60466041,13,PULLMAN,8,47,23641,322,0.7204968944099379,0.9875776397515528,3,87.35,81.05000000000001,6.299999999999983,,,,,,14228.73602484472,
239,609981,HEARST,60638,41.808175,-87.74572606,10,GARFIELD RIDGE,22,53,23671,319,0.7523510971786834,0.9717868338557992,2,90.2,80.05000000000001,10.149999999999991,,,,,,17252.379310344826,
240,609983,HEDGES,60609,41.80711213,-87.67332726,8,NEW CITY,15,59,23681,480,0.7854166666666667,0.9875,1,88.55,83.55,5.0,,,,,,13879.6,
241,609986,HENDERSON,60636,41.79059129,-87.67188731,11,WEST ENGLEWOOD,15,65,23721,177,0.7288135593220338,0.9830508474576272,2,87.3,75.69999999999999,11.600000000000009,,,,,,18989.79661016949,
242,609987,HENDRICKS,60609,41.81578775,-87.63366448,9,FULLER PARK,3,3,31121,181,0.8232044198895028,0.988950276243094,2,76.75,73.6,3.1500000000000057,,,,,,24837.331491712706,
243,609988,HENRY,60618,41.9589888,-87.71563237,1,IRVING PARK,35,16,23731,455,0.789010989010989,0.8593406593406593,2,91.5,89.7,1.7999999999999972,,,,,,12770.52967032967,
244,609991,HERZL,60623,41.8620813,-87.71899385,5,NORTH LAWNDALE,24,30,23771,437,0.7940503432494279,0.9931350114416476,2,93.5,74.15,19.349999999999994,,,,,,15694.78489702517,
245,609993,LARA,60609,41.8097703,-87.67218159,8,NEW CITY,15,59,23791,320,0.8125,0.98125,1,88.85,77.55,11.299999999999995,,,,,,18355.703125,
246,609994,HIBBARD,60625,41.97033524,-87.71036161,1,ALBANY PARK,33,14,23801,912,0.7105263157894737,0.8223684210526315,3,91.3,89.95,1.3499999999999943,,,,,,10235.11403508772,
247,609995,HITCH,60646,41.9836717,-87.77912305,1,NORWOOD PARK,45,36,23811,496,0.4737903225806452,0.5161290322580645,2,92.35,89.75,2.5999999999999943,,,,,,11335.883064516129,
248,609996,HOLDEN,60608,41.83802739,-87.65379167,6,BRIDGEPORT,11,58,23821,401,0.713216957605985,0.6483790523690773,2,92.0,87.35,4.650000000000006,,,,,,12465.768079800499,
249,610000,HOWE,60644,41.89361221,-87.75939839,3,AUSTIN,37,26,23851,377,0.7771883289124668,0.9840848806366048,2,95.15,80.85,14.300000000000011,,,,,,12334.395225464192,
250,610003,CUFFE,60620,41.74245163,-87.65363345,11,AUBURN GRESHAM,21,70,23881,228,0.6929824561403509,1.0,2,87.55000000000001,85.19999999999999,2.3500000000000227,,,,,,18573.986842105263,
251,610005,HUGHES C,60623,41.86051774,-87.73177739,5,NORTH LAWNDALE,24,30,23901,192,0.7604166666666666,0.984375,2,87.75,69.80000000000001,17.94999999999999,,,,,,18438.572916666668,
252,610006,HURLEY,60629,41.76678528,-87.71954083,10,WEST LAWN,13,63,23911,721,0.7753120665742025,0.984743411927878,2,88.7,86.35,2.3500000000000085,,,,,,10998.633841886269,
253,610010,JAHN,60657,41.9392475,-87.67580972,4,NORTH CENTER,32,46,23921,290,0.4137931034482758,0.593103448275862,1,91.8,91.3,0.5,,,,,,17947.741379310344,
254,610011,JAMIESON,60659,41.98464078,-87.70052942,2,WEST RIDGE,40,20,23931,794,0.593198992443325,0.3916876574307305,2,89.6,90.15,-0.5500000000000114,,,,,,11452.725440806045,
255,610015,JUNGMAN,60608,41.85806478,-87.65230159,7,LOWER WEST SIDE,25,33,23961,290,0.6517241379310345,0.8517241379310345,3,86.65,76.2,10.450000000000005,,,,,,18166.91724137931,
256,610017,SAUCEDO,60623,41.84794072,-87.69731554,7,SOUTH LAWNDALE,12,32,29151,883,0.7995469988674971,0.9932049830124576,2,89.65,85.8,3.850000000000009,,,,,,11978.268403171009,
257,610019,KERSHAW,60621,41.77645281,-87.64089203,11,ENGLEWOOD,20,66,23991,211,0.8436018957345972,1.0,2,89.8,79.75,10.049999999999995,,,,,,21990.99526066351,
258,610021,CASALS,60651,41.90450276,-87.71423365,5,HUMBOLDT PARK,26,24,24011,351,0.7863247863247863,0.9743589743589745,3,88.25,81.35,6.900000000000006,,,,,,12741.846153846154,
259,610022,KILMER,60626,42.00364046,-87.66822247,2,ROGERS PARK,49,10,24021,743,0.7617765814266487,0.693135935397039,2,87.65,85.9,1.75,,,,,,13506.775235531628,
260,610024,CARDENAS,60623,41.84848777,-87.71601741,7,SOUTH LAWNDALE,22,32,24051,819,0.8400488400488401,0.989010989010989,2,93.4,87.2,6.200000000000003,,,,,,14041.802197802197,
261,610026,KINZIE,60638,41.78996463,-87.7794826,10,GARFIELD RIDGE,13,53,24071,665,0.4917293233082707,0.825563909774436,3,88.65,82.9,5.75,,,,,,13568.86015037594,
262,610030,KOZMINSKI,60615,41.79800188,-87.60248145,9,HYDE PARK,5,8,31151,260,0.6269230769230769,0.8807692307692307,4,76.80000000000001,76.65,0.1500000000000056,,,,,,13294.292307692307,
263,610032,GREEN,60643,41.71929195,-87.65250014,11,WASHINGTON HEIGHTS,21,72,24131,304,0.756578947368421,0.993421052631579,2,87.45,87.8,-0.3499999999999943,,,,,,16849.519736842107,
264,610036,LEWIS,60651,41.90682605,-87.75454995,3,AUSTIN,37,26,24151,378,0.791005291005291,0.9814814814814816,2,91.45,86.7,4.75,,,,,,14099.57142857143,
265,610039,VON LINNE,60618,41.94000928,-87.70263467,4,AVONDALE,33,22,24201,623,0.5248796147672552,0.7688603531300161,0,91.85,93.15,-1.3000000000000114,,,,,,11048.510433386838,
266,610040,LLOYD,60639,41.9188141,-87.74851501,3,BELMONT CRAGIN,36,19,24221,842,0.7434679334916865,0.9774346793349168,2,90.2,84.3,5.900000000000006,,,,,,11523.754156769597,
267,610041,LOCKE J,60634,41.93176235,-87.79560407,3,MONTCLARE,36,18,24231,1148,0.7560975609756098,0.872822299651568,0,86.55000000000001,84.6,1.950000000000017,,,,,,10989.587108013937,
268,610043,LOVETT,60639,41.91271803,-87.78391885,3,AUSTIN,29,26,24241,312,0.7467948717948718,0.9935897435897436,2,93.8,89.80000000000001,4.0,,,,,,13192.176282051281,
269,610044,LOWELL,60651,41.90651959,-87.710217,5,HUMBOLDT PARK,26,24,24251,308,0.8084415584415584,0.9545454545454546,2,85.9,79.15,6.75,,,,,,19291.555194805194,
270,610047,MADISON,60619,41.75954806,-87.5907124,12,SOUTH SHORE,8,39,24301,190,0.7736842105263158,0.9947368421052633,4,85.25,79.45,5.799999999999997,,,,,,18343.163157894738,
271,610048,MANIERRE,60610,41.90824688,-87.63982651,4,NEAR NORTH SIDE,27,37,24311,251,0.8286852589641435,0.99601593625498,3,83.95,82.2,1.75,,,,,,20430.011952191235,
272,610053,MARQUETTE,60629,41.77388108,-87.6970298,10,CHICAGO LAWN,17,64,24341,1018,0.7966601178781926,0.9833005893909628,1,90.6,84.35,6.25,610053.0,0.96,65.0,100.0,1.5384615384615383,11679.001964636542,48592.75384615385
273,610054,MARSH,60617,41.71658802,-87.55248343,13,SOUTH DEERING,10,48,24361,647,0.7727975270479135,0.9675425038639875,1,88.1,82.9,5.199999999999989,,,,,,13247.636785162287,
274,610055,FARADAY,60624,41.87971359,-87.70809202,5,EAST GARFIELD PARK,28,28,24371,170,0.8764705882352941,1.0,5,89.3,75.94999999999999,13.350000000000009,,,,,,21656.058823529413,
275,610056,MASON,60623,41.8568637,-87.73167243,5,NORTH LAWNDALE,24,30,24381,219,0.8493150684931506,1.0,1,94.25,79.5,14.75,,,,,,20620.730593607306,
276,610057,FAIRFIELD,60629,41.7809039,-87.69211506,10,CHICAGO LAWN,16,64,26701,485,0.8701030927835052,0.9979381443298968,1,92.55,84.65,7.900000000000006,610057.0,0.93,29.0,44.61538461538462,1.5384615384615383,11536.259793814434,55039.68965517241
277,610059,MAYER,60614,41.92320352,-87.65728744,4,LINCOLN PARK,43,68,24401,666,0.09009009009009,0.1816816816816817,1,93.75,92.6,1.1500000000000057,,,,,,11169.127627627628,
278,610063,MCCORMICK,60623,41.84226717,-87.70630009,7,SOUTH LAWNDALE,22,32,24431,445,0.7617977528089888,0.9797752808988764,2,95.15,87.30000000000001,7.849999999999994,,,,,,15789.822471910113,
279,610065,TILL,60637,41.77542384,-87.60935721,9,WOODLAWN,20,9,24441,317,0.8107255520504731,0.996845425867508,4,88.6,65.0,23.599999999999994,,,,,,14256.76025236593,
280,610067,MCKAY,60629,41.76814276,-87.6917865,10,CHICAGO LAWN,17,64,24451,633,0.7867298578199052,0.971563981042654,2,91.45,78.55,12.899999999999991,,,,,,13670.077409162717,
281,610068,HANSON PARK,60639,41.92395526,-87.76151477,3,BELMONT CRAGIN,36,19,24461,1154,0.7686308492201039,0.9783362218370883,2,89.55,88.25,1.2999999999999972,610068.0,0.96,93.0,143.07692307692307,1.5384615384615383,15001.486135181976,48997.354838709674
282,610070,MCPHERSON,60640,41.96784687,-87.67628825,2,LINCOLN SQUARE,47,6,24471,668,0.4580838323353293,0.6452095808383234,2,89.44999999999999,90.15,-0.700000000000017,,,,,,14691.752994011977,
283,610073,MITCHELL,60612,41.89208217,-87.68318459,5,WEST TOWN,26,25,24511,382,0.3036649214659686,0.4554973821989528,3,91.5,93.1,-1.5999999999999943,,,,,,10861.549738219896,
284,610074,MONROE,60647,41.9299886,-87.71922375,4,LOGAN SQUARE,35,23,24531,653,0.8101071975497703,0.9326186830015314,2,89.3,86.2,3.0999999999999943,,,,,,13023.732006125574,
285,610076,MOOS,60647,41.91250548,-87.69694139,5,WEST TOWN,1,25,24551,431,0.6774941995359629,0.8816705336426914,3,91.95,90.35,1.6000000000000083,,,,,,13646.222737819025,
286,610078,INTER-AMERICAN,60613,41.9490033,-87.65157334,4,LAKE VIEW,44,57,29191,670,0.4522388059701492,0.8776119402985074,0,93.15,93.0,0.1500000000000056,610078.0,0.95,42.0,64.61538461538461,1.5384615384615383,10836.764179104477,65814.76190476191
287,610083,BEARD,60656,41.97012488,-87.78963033,1,NORWOOD PARK,45,36,30051,316,0.2531645569620253,0.5221518987341772,3,88.5,85.05000000000001,3.4499999999999886,,,,,,27720.268987341773,
288,610086,MOUNT VERNON,60643,41.70195212,-87.64765249,13,WASHINGTON HEIGHTS,34,72,24601,229,0.8384279475982532,0.9956331877729258,2,89.4,76.8,12.600000000000009,610086.0,0.96,16.0,24.615384615384617,1.5384615384615383,14711.755458515283,46447.5
289,610087,BLAIR,60638,41.77655627,-87.79060442,10,CLEARING,23,62,30071,237,0.3881856540084388,0.8227848101265823,0,90.85,80.7,10.149999999999991,610087.0,1.0,22.0,33.84615384615385,1.5384615384615383,26973.12658227848,18045.272727272728
290,610088,MOZART,60647,41.92090965,-87.72188814,4,LOGAN SQUARE,35,23,24611,487,0.8193018480492813,0.9671457905544149,2,91.5,86.95,4.549999999999997,,,,,,13488.728952772073,
291,610089,MURPHY,60618,41.95007775,-87.71683186,1,IRVING PARK,35,16,24621,493,0.4888438133874239,0.6308316430020284,2,92.2,89.9,2.299999999999997,,,,,,13190.993914807303,
292,610091,BROWN R,60628,41.66487335,-87.63895773,13,WEST PULLMAN,9,50,24631,295,0.7389830508474576,0.9932203389830508,2,78.69999999999999,75.85,2.8499999999999943,,,,,,13817.261016949153,
293,610092,NASH,60644,41.89180975,-87.74793588,3,AUSTIN,37,26,24641,236,0.7584745762711864,0.9915254237288136,2,86.25,76.35,9.900000000000006,,,,,,16158.52966101695,
294,610093,NEIL,60619,41.7384066,-87.62093346,12,CHATHAM,6,40,24651,250,0.78,0.98,2,91.2,73.85,17.35000000000001,,,,,,28336.148,
295,610094,NETTELHORST,60657,41.94163655,-87.64456122,4,LAKE VIEW,44,57,24661,624,0.157051282051282,0.2307692307692307,4,92.15,91.05,1.1000000000000083,,,,,,12264.54326923077,
296,610095,NEWBERRY,60614,41.91394722,-87.64599025,4,LINCOLN PARK,43,68,29231,359,0.6768802228412256,0.8746518105849582,4,92.15,88.19999999999999,3.950000000000017,,,,,,16179.08913649025,
297,610096,NIGHTINGALE,60632,41.79771438,-87.68913886,8,GAGE PARK,14,61,24671,978,0.8292433537832311,0.9795501022494888,3,91.95,87.35,4.6000000000000085,,,,,,11781.40899795501,
298,610097,NIXON,60639,41.91958145,-87.73142009,4,HERMOSA,35,21,24681,593,0.7706576728499157,0.981450252951096,2,91.65,88.44999999999999,3.200000000000017,,,,,,12249.787521079257,
299,610098,NOBEL,60651,41.90615515,-87.72995463,5,HUMBOLDT PARK,26,24,24691,582,0.7800687285223368,0.9845360824742267,3,92.95,89.4,3.549999999999997,,,,,,12191.621993127148,
300,610099,NORWOOD PARK,60631,41.98815251,-87.80297944,1,NORWOOD PARK,41,36,24711,338,0.1301775147928994,0.363905325443787,2,91.75,92.35,-0.5999999999999943,610099.0,0.96,24.0,36.92307692307693,1.5384615384615383,13021.695266272189,61591.458333333336
301,610100,WEST PARK,60651,41.90690721,-87.7324431,5,HUMBOLDT PARK,26,24,24721,458,0.87117903930131,0.965065502183406,2,90.7,92.85,-2.1499999999999915,610100.0,0.93,36.0,55.38461538461539,1.5384615384615383,13651.724890829695,64504.944444444445
302,610102,OGLESBY,60620,41.75467006,-87.6454695,11,AUBURN GRESHAM,17,70,24741,274,0.8467153284671532,0.9927007299270072,3,88.19999999999999,87.3,0.8999999999999915,,,,,,19318.879562043796,
303,610103,OKEEFFE,60649,41.76860231,-87.57280596,12,SOUTH SHORE,5,39,24751,497,0.8229376257545271,0.9879275653923542,4,89.3,80.05000000000001,9.249999999999986,,,,,,13557.3138832998,
304,610104,ONAHAN,60631,41.99379035,-87.79310826,1,NORWOOD PARK,41,36,24761,659,0.2731411229135053,0.3186646433990895,1,90.75,91.9,-1.1500000000000057,,,,,,10191.254931714719,
305,610105,ORIOLE PARK,60656,41.97850138,-87.81205404,1,NORWOOD PARK,41,36,24771,597,0.1959798994974874,0.2981574539363484,2,90.15,91.15,-1.0,610105.0,0.96,45.0,69.23076923076923,1.5384615384615383,11100.96984924623,62080.444444444445
306,610106,PICCOLO,60651,41.90013966,-87.7312606,5,HUMBOLDT PARK,37,24,24781,575,0.8347826086956521,0.9895652173913044,1,89.15,80.80000000000001,8.349999999999994,,,,,,11882.667826086956,
307,610107,OTIS,60642,41.89180608,-87.66542624,6,WEST TOWN,1,25,24791,325,0.796923076923077,0.9107692307692308,3,86.4,78.45,7.950000000000003,,,,,,19397.286153846155,
308,610108,OTOOLE,60636,41.77457107,-87.674865,11,WEST ENGLEWOOD,16,65,24801,324,0.8209876543209876,0.9814814814814816,2,91.75,85.75,6.0,,,,,,13976.592592592593,
309,610110,WELLS ES,60653,41.82735527,-87.61977966,9,DOUGLAS,3,1,24811,286,0.7237762237762237,0.8566433566433567,3,89.4,73.3,16.10000000000001,,,,,,17160.11188811189,
310,610111,PALMER,60630,41.97328939,-87.73921295,1,ALBANY PARK,39,14,24821,742,0.5862533692722371,0.4474393530997305,4,87.05,88.3,-1.25,,,,,,10494.381401617251,
311,610112,PARKER,60621,41.7707798,-87.63408586,11,ENGLEWOOD,6,66,31181,354,0.7966101694915254,0.9971751412429378,2,83.80000000000001,75.8,8.000000000000014,,,,,,16897.011299435027,
312,610115,PARK MANOR,60637,41.76647654,-87.61154559,12,GREATER GRAND CROSSING,6,67,24841,258,0.751937984496124,0.996124031007752,1,92.4,83.75,8.650000000000006,610115.0,0.96,15.0,23.07692307692308,1.5384615384615383,16161.058139534884,71046.66666666667
313,610116,PARKSIDE,60649,41.76855519,-87.58295438,12,SOUTH SHORE,5,39,31201,246,0.8292682926829268,1.0,3,89.45,78.0,11.450000000000005,610116.0,0.91,15.0,23.07692307692308,1.5384615384615383,15865.239837398374,56021.53333333333
314,610117,PASTEUR,60629,41.78689538,-87.73266646,8,WEST ELSDON,13,60,24851,585,0.6615384615384615,0.9709401709401708,1,91.55,87.35,4.200000000000003,,,,,,12236.588034188035,
315,610120,PECK,60629,41.78789897,-87.71921626,8,WEST ELSDON,23,60,24871,803,0.6836861768368617,0.9813200498132004,2,91.3,87.19999999999999,4.100000000000023,,,,,,11300.966376089664,
316,610121,IRVING,60612,41.87159549,-87.68361565,6,NEAR WEST SIDE,28,29,24881,292,0.6986301369863014,0.928082191780822,3,87.55000000000001,76.15,11.400000000000006,610121.0,0.92,45.0,69.23076923076923,1.5384615384615383,16721.119863013697,62287.48888888889
317,610121,IRVING,60612,41.87159549,-87.68361565,6,NEAR WEST SIDE,28,29,24881,292,0.6986301369863014,0.928082191780822,3,87.55000000000001,76.15,11.400000000000006,610121.0,0.92,21.0,32.30769230769231,1.5384615384615383,16721.119863013697,70724.23809523809
318,610122,PEIRCE,60660,41.98345579,-87.66585004,2,EDGEWATER,48,76,24891,1063,0.3386641580432737,0.3998118532455315,3,91.25,89.80000000000001,1.4499999999999886,,,,,,10744.288805268108,
319,610123,PENN,60623,41.85837242,-87.72238555,5,NORTH LAWNDALE,24,30,24911,220,0.7636363636363637,0.990909090909091,2,90.2,73.69999999999999,16.500000000000014,,,,,,19238.50909090909,
320,610124,WASHINGTON H ES,60619,41.72853414,-87.59625662,12,BURNSIDE,8,43,24921,246,0.7520325203252033,0.9878048780487804,4,89.6,86.05000000000001,3.549999999999983,,,,,,17398.959349593497,
321,610125,RUIZ,60608,41.84810094,-87.68074453,7,LOWER WEST SIDE,25,33,24931,431,0.765661252900232,0.974477958236659,2,89.9,85.0,4.900000000000006,,,,,,16214.791183294663,
322,610126,PERSHING,60616,41.83652695,-87.61833765,9,DOUGLAS,4,1,29251,418,0.7129186602870813,0.9784688995215312,2,82.25,81.65,0.5999999999999943,,,,,,14861.444976076555,
323,610127,PETERSON,60625,41.98155714,-87.71258258,1,NORTH PARK,39,13,24941,838,0.5477326968973747,0.4272076372315035,1,86.85,89.94999999999999,-3.0999999999999943,,,,,,10756.968973747016,
324,610128,GARVEY,60643,41.70660286,-87.64757717,13,WASHINGTON HEIGHTS,34,72,24951,238,0.8487394957983193,0.9957983193277312,3,89.9,84.15,5.75,,,,,,14807.953781512606,
325,610129,PICKARD,60608,41.8529004,-87.68329074,7,LOWER WEST SIDE,25,33,24961,291,0.845360824742268,0.9690721649484536,2,95.05,94.5,0.5500000000000114,,,,,,19260.27147766323,
326,610130,PIRIE,60619,41.74034023,-87.60789114,12,CHATHAM,6,40,24971,202,0.7128712871287128,0.9801980198019802,2,90.3,81.65,8.650000000000006,,,,,,18721.247524752474,
327,610133,WARD L,60624,41.89323561,-87.71879729,5,HUMBOLDT PARK,27,24,24991,251,0.8167330677290837,0.99601593625498,1,86.9,71.35,15.550000000000011,,,,,,23964.390438247014,
328,610135,PORTAGE PARK,60641,41.95698764,-87.761007,1,PORTAGE PARK,38,15,25011,831,0.6064981949458483,0.6570397111913358,2,86.5,89.7,-3.200000000000003,610135.0,0.96,53.0,81.53846153846153,3.076923076923077,11268.304452466908,57204.09433962264
329,610138,PULASKI,60647,41.91848628,-87.68380143,6,LOGAN SQUARE,32,23,31211,820,0.4024390243902439,0.5646341463414634,0,90.1,89.45,0.6499999999999915,,,,,,10264.770731707316,
330,610139,PULLMAN,60628,41.68881935,-87.60943097,13,PULLMAN,9,47,25041,302,0.7748344370860927,0.9900662251655628,2,88.7,83.8,4.900000000000006,,,,,,15236.662251655629,
331,610141,RAVENSWOOD,60613,41.96074569,-87.67092242,2,LAKE VIEW,47,57,25061,536,0.2817164179104477,0.3694029850746269,2,94.05,91.3,2.749999999999986,610141.0,0.96,35.0,53.84615384615385,1.5384615384615383,10611.679104477613,53138.34285714286
332,610142,RAY,60637,41.79234788,-87.59475207,9,HYDE PARK,5,8,25071,497,0.4507042253521127,0.7303822937625755,2,86.6,87.85,-1.25,,,,,,13851.30985915493,
333,610143,REAVIS,60615,41.80417379,-87.60492543,9,KENWOOD,4,5,25091,289,0.7162629757785467,0.9896193771626296,2,82.6,72.85,9.75,,,,,,14335.757785467127,
334,610144,REILLY,60618,41.94109399,-87.71954054,4,AVONDALE,30,22,25101,555,0.7963963963963964,0.9567567567567568,2,88.80000000000001,89.85,-1.049999999999983,,,,,,15642.677477477477,
335,610145,REINBERG,60634,41.9430189,-87.76898262,1,PORTAGE PARK,36,15,25111,745,0.6738255033557047,0.8013422818791947,3,87.6,81.65,5.949999999999989,,,,,,12784.68456375839,
336,610147,ROGERS,60645,42.01526505,-87.69718539,2,WEST RIDGE,50,20,25141,699,0.5679542203147353,0.5450643776824035,4,85.7,85.0,0.7000000000000028,,,,,,12600.035765379112,
337,610148,CHAVEZ,60609,41.80714283,-87.66603693,8,NEW CITY,20,59,25151,814,0.8513513513513513,0.9926289926289926,3,91.6,87.85,3.75,,,,,,12363.958230958231,
338,610152,RUGGLES,60619,41.75194558,-87.61806645,12,GREATER GRAND CROSSING,6,67,25181,321,0.7570093457943925,0.9875389408099688,2,89.30000000000001,77.65,11.650000000000006,,,,,,15278.856697819314,
339,610153,RYDER,60620,41.73537939,-87.6388427,11,AUBURN GRESHAM,21,70,25191,350,0.7885714285714286,0.9942857142857144,2,89.1,85.85,3.25,,,,,,19758.448571428573,
340,610158,SAYRE,60707,41.91415063,-87.79872071,3,AUSTIN,29,26,29271,427,0.5714285714285714,0.8758782201405152,2,91.3,91.2,0.1000000000000085,,,,,,13691.192037470726,
341,610159,SCAMMON,60641,41.9416776,-87.73217878,1,IRVING PARK,30,16,25241,641,0.7831513260530422,0.9126365054602184,2,90.05000000000001,87.05,3.000000000000014,,,,,,10747.202808112324,
342,610163,STOCK,60631,42.01689164,-87.81419465,1,EDISON PARK,41,77,30081,236,0.1016949152542373,0.2627118644067797,0,90.15,86.05,4.1000000000000085,,,,,,19615.241525423728,
343,610165,SCHUBERT,60639,41.93040332,-87.76119047,3,BELMONT CRAGIN,31,19,25291,543,0.7734806629834254,0.9650092081031308,2,91.7,89.25,2.450000000000003,,,,,,13003.79373848987,
344,610167,SEWARD,60609,41.81033324,-87.66877201,8,NEW CITY,15,59,25301,451,0.8536585365853658,0.9822616407982262,2,89.94999999999999,80.55000000000001,9.399999999999975,,,,,,14294.062084257206,
345,610170,COLUMBIA EXPLORERS,60632,41.81106861,-87.70419859,8,BRIGHTON PARK,14,55,20071,768,0.76953125,0.9817708333333334,2,91.1,88.15,2.9499999999999886,610170.0,0.95,59.0,90.76923076923076,1.5384615384615383,12194.841145833334,55177.101694915254
346,610171,MIRELES,60617,41.73171692,-87.55278794,12,SOUTH CHICAGO,10,42,25331,466,0.7703862660944206,0.98068669527897,5,85.25,80.0,5.25,,,,,,11119.504291845493,
347,610172,SHERMAN,60609,41.79976621,-87.65022145,11,NEW CITY,20,59,25341,221,0.7737556561085973,0.995475113122172,2,85.65,79.2,6.450000000000003,,,,,,16791.814479638007,
348,610173,SHERWOOD,60621,41.79080024,-87.63227938,11,ENGLEWOOD,20,66,25351,207,0.7874396135265701,0.9903381642512076,4,92.5,79.75,12.75,,,,,,20988.38164251208,
349,610174,SHIELDS,60632,41.81590949,-87.68964724,8,BRIGHTON PARK,15,55,25361,469,0.767590618336887,0.9808102345415778,2,91.05,86.94999999999999,4.1000000000000085,,,,,,14292.889125799573,
350,610176,SHOOP,60643,41.69091888,-87.65866905,13,MORGAN PARK,34,74,25381,391,0.7953964194373402,0.9820971867007672,2,87.25,84.55,2.700000000000003,,,,,,15080.626598465473,
351,610177,SKINNER,60607,41.87910254,-87.65941898,6,NEAR WEST SIDE,27,29,29281,991,0.2411705348133198,0.3632694248234107,2,96.85,91.75,5.099999999999994,,,,,,10462.514631685166,
352,610178,SCHMID,60628,41.71698887,-87.59693188,12,PULLMAN,8,47,25391,176,0.75,0.9943181818181818,3,80.1,73.5,6.599999999999994,,,,,,17648.43181818182,
353,610179,SMYSER,60634,41.95886804,-87.78197454,1,PORTAGE PARK,38,15,25401,751,0.5912117177097204,0.6830892143808256,2,92.0,91.75,0.25,,,,,,11562.970705725698,
354,610180,SMYTH,60608,41.86535102,-87.65344503,6,NEAR WEST SIDE,25,29,25411,396,0.696969696969697,0.9873737373737372,2,88.05000000000001,79.4,8.650000000000006,,,,,,16389.87373737374,
355,610182,SOLOMON,60659,41.99394233,-87.72404263,1,NORTH PARK,39,13,25431,341,0.4134897360703812,0.2404692082111437,1,84.75,85.2,-0.4500000000000028,,,,,,13879.073313782992,
356,610183,SPENCER,60644,41.8848764,-87.75044473,3,AUSTIN,28,26,25441,385,0.7714285714285715,0.974025974025974,3,87.35,78.1,9.25,610183.0,0.95,37.0,56.92307692307692,1.5384615384615383,15013.64935064935,59719.86486486487
357,610185,STEVENSON,60652,41.74710688,-87.73166568,10,ASHBURN,18,69,25471,1125,0.7431111111111111,0.9564444444444444,2,89.0,87.1,1.9000000000000057,,,,,,12149.48,
358,610188,DUNNE,60628,41.69649616,-87.6399736,13,ROSELAND,34,45,25491,203,0.7093596059113301,0.9950738916256158,2,90.95,90.35,0.6000000000000085,610188.0,0.94,14.0,21.53846153846154,1.5384615384615383,19013.709359605913,60603.42857142857
359,610192,STOWE,60647,41.91193808,-87.7133175,5,HUMBOLDT PARK,26,24,25521,562,0.798932384341637,0.9679715302491104,2,89.75,86.15,3.5999999999999943,,,,,,13136.766903914591,
360,610193,NEW SULLIVAN,60617,41.74382852,-87.54292761,12,SOUTH CHICAGO,10,42,25541,397,0.8035264483627204,0.9546599496221664,3,87.2,77.15,10.049999999999995,,,,,,18227.75314861461,
361,610194,SUMNER,60624,41.87082838,-87.73352395,5,WEST GARFIELD PARK,24,27,31221,200,0.815,1.0,2,91.65,89.25,2.4000000000000057,,,,,,20034.05,
362,610196,SWIFT,60660,41.98913906,-87.65829608,2,EDGEWATER,48,76,25571,547,0.6636197440585009,0.5283363802559415,4,92.55,91.1,1.450000000000017,,,,,,13612.414990859232,
363,610197,TALCOTT,60622,41.89240461,-87.67372272,6,WEST TOWN,1,25,25581,446,0.625560538116592,0.8811659192825112,3,92.75,91.45,1.2999999999999972,,,,,,14143.446188340808,
364,610198,TAYLOR,60617,41.71547038,-87.53297077,13,EAST SIDE,10,49,25591,342,0.8070175438596491,0.8976608187134503,0,88.65,83.0,5.650000000000006,,,,,,14619.260233918129,
365,610199,COLEMON,60643,41.67750545,-87.65811084,13,WEST PULLMAN,34,50,26751,195,0.6717948717948717,1.0,1,92.35,85.35,7.0,,,,,,17500.251282051282,
366,610200,THORP J,60617,41.73332424,-87.54427998,12,SOUTH CHICAGO,10,42,25601,274,0.8394160583941606,0.9854014598540146,4,85.6,76.85,8.75,,,,,,19325.75182481752,
367,610202,TILTON,60624,41.88410224,-87.73056638,5,WEST GARFIELD PARK,28,27,25621,236,0.8432203389830508,0.9915254237288136,2,86.95,76.95,10.0,,,,,,17514.60593220339,
368,610203,TONTI,60629,41.78752323,-87.70817918,8,GAGE PARK,23,61,25631,803,0.7559153175591532,0.9838107098381071,4,93.5,89.2,4.299999999999997,,,,,,12463.42590286426,
369,610206,TWAIN,60638,41.7990464,-87.7589284,10,GARFIELD RIDGE,14,53,25661,920,0.6760869565217391,0.9010869565217392,2,91.35,92.65,-1.3000000000000114,,,,,,10652.645652173913,
370,610208,LAVIZZO,60628,41.69626235,-87.62714769,13,ROSELAND,34,45,25671,337,0.7537091988130564,0.9970326409495548,3,93.05,75.44999999999999,17.600000000000023,,,,,,14827.299703264094,
371,610209,VOLTA,60625,41.971634,-87.72460522,1,ALBANY PARK,39,14,25681,702,0.6937321937321937,0.6994301994301995,2,91.05,89.1,1.950000000000017,,,,,,11001.098290598291,
372,610213,WADSWORTH,60637,41.7734779,-87.60101811,9,WOODLAWN,5,9,25711,480,0.71875,0.9770833333333332,0,85.55000000000001,80.35,5.200000000000017,,,,,,13346.077083333334,
373,610216,WALSH,60608,41.85483575,-87.64808617,7,LOWER WEST SIDE,11,33,25731,240,0.725,0.8958333333333334,1,88.5,82.35,6.150000000000006,,,,,,22555.9875,
374,610217,WARD J,60616,41.84398009,-87.63535579,6,ARMOUR SQUARE,11,35,25751,516,0.6763565891472868,0.1647286821705426,0,94.6,95.0,-0.4000000000000057,,,,,,12131.005813953489,
375,610218,WARREN,60617,41.72676291,-87.57535255,12,CALUMET HEIGHTS,7,44,25761,250,0.804,1.0,0,78.35,86.94999999999999,-8.599999999999994,,,,,,12541.564,
376,610219,WASHINGTON G ES,60617,41.68813148,-87.5360153,13,EAST SIDE,10,49,25771,633,0.6951026856240127,0.9415481832543444,2,88.35,88.25,0.0999999999999943,,,,,,11327.751974723538,
377,610221,WEBSTER,60624,41.86991586,-87.72752437,5,WEST GARFIELD PARK,24,27,25791,207,0.6956521739130435,0.9903381642512076,2,91.1,80.85,10.25,,,,,,18139.270531400965,
378,610223,WENTWORTH,60636,41.7650759,-87.65820484,11,WEST ENGLEWOOD,6,65,25811,401,0.7880299251870324,1.0,2,88.45,74.0,14.450000000000005,,,,,,16418.03740648379,
379,610225,WHISTLER,60643,41.68390701,-87.65538382,13,WEST PULLMAN,34,50,25831,273,0.6923076923076923,0.8827838827838828,0,93.2,76.0,17.19999999999999,,,,,,16878.553113553113,
380,610226,SANDOVAL,60629,41.79234608,-87.71098733,8,GAGE PARK,14,61,26721,738,0.7926829268292683,0.9796747967479674,3,90.55,89.1,1.4500000000000028,,,,,,11716.551490514905,
381,610227,WHITNEY,60623,41.84008043,-87.72554564,7,SOUTH LAWNDALE,22,32,25841,592,0.8243243243243243,0.9932432432432432,0,90.35,88.94999999999999,1.4000000000000057,,,,,,14384.976351351352,
382,610228,WHITTIER,60608,41.85048089,-87.67339165,7,LOWER WEST SIDE,25,33,25861,167,0.7664670658682635,0.9700598802395208,4,90.75,85.15,5.599999999999994,,,,,,18174.532934131737,
383,610229,PRITZKER,60622,41.90705301,-87.67776098,6,WEST TOWN,1,25,25871,653,0.2771822358346095,0.4869831546707504,3,87.65,91.3,-3.6500000000000057,,,,,,9961.45482388974,
384,610231,NATIONAL TEACHERS,60616,41.85279977,-87.62930833,6,NEAR SOUTH SIDE,3,34,32031,755,0.5774834437086093,0.7867549668874172,4,91.0,87.65,3.3499999999999943,610231.0,0.95,43.0,66.15384615384615,1.5384615384615383,10250.527152317882,48622.67441860465
385,610234,YATES,60647,41.91503855,-87.70028031,5,LOGAN SQUARE,1,23,25911,284,0.8204225352112676,0.9330985915492958,2,89.3,82.95,6.349999999999994,,,,,,22482.38732394366,
386,610235,YOUNG ES,60651,41.90679057,-87.76714285,3,AUSTIN,29,26,25921,470,0.7957446808510639,0.9851063829787234,3,88.15,79.95,8.200000000000003,,,,,,15488.691489361701,
387,610237,BEETHOVEN,60609,41.80913476,-87.62713681,9,GRAND BOULEVARD,3,4,25931,266,0.7142857142857143,0.9887218045112782,1,85.44999999999999,73.05,12.399999999999991,,,,,,13780.642857142857,
388,610239,DALEY,60609,41.80234287,-87.6722064,8,NEW CITY,20,59,25951,479,0.8455114822546973,0.9895615866388308,3,90.55,79.25,11.300000000000011,,,,,,12609.88935281837,
389,610242,BRENNEMANN,60613,41.95998416,-87.64974917,2,UPTOWN,46,31,25991,447,0.6868008948545862,0.7941834451901566,3,84.4,88.15,-3.75,,,,,,12810.59284116331,
390,610244,CLARK HS,60644,41.87288501,-87.75332487,3,AUSTIN,29,26,41051,450,0.9755555555555556,0.9955555555555556,3,90.55,71.0875,19.46250000000001,,,,,,17607.413333333334,
391,610246,BEASLEY,60609,41.79846496,-87.62569158,9,WASHINGTON PARK,3,7,29321,1046,0.6510516252390057,0.982791586998088,3,86.95,77.55,9.400000000000006,,,,,,11506.88432122371,
392,610248,CHICAGO ACADEMY ES,60634,41.94305592,-87.7781868,1,DUNNING,36,17,45211,565,0.6831858407079646,0.768141592920354,0,89.15,90.0,-0.8499999999999943,610248.0,0.96,34.0,52.30769230769232,1.5384615384615383,11189.04778761062,53709.23529411765
393,610249,TALMAN,60632,41.79404805,-87.69026084,8,GAGE PARK,14,61,26781,342,0.783625730994152,0.9766081871345028,3,92.2,86.6,5.6000000000000085,610249.0,0.95,26.0,40.0,1.5384615384615383,15503.78947368421,53974.730769230766
394,610250,SALAZAR,60610,41.90141653,-87.63363243,6,NEAR NORTH SIDE,27,37,30101,278,0.7158273381294964,0.960431654676259,4,93.0,84.9,8.099999999999994,,,,,,15484.111510791367,
395,610251,CATHER,60612,41.88294992,-87.69918701,5,EAST GARFIELD PARK,27,28,26021,330,0.8424242424242424,0.993939393939394,2,84.55,72.7,11.849999999999994,,,,,,17699.82424242424,
396,610252,DETT,60612,41.87986982,-87.68031497,6,NEAR WEST SIDE,27,29,26031,252,0.7579365079365079,0.988095238095238,2,81.55,71.95,9.599999999999994,,,,,,22843.90873015873,
397,610254,DVORAK,60623,41.85888345,-87.71574357,5,NORTH LAWNDALE,24,30,26051,274,0.8576642335766423,0.9854014598540146,2,89.65,79.55,10.100000000000009,610254.0,0.95,24.0,36.92307692307693,1.5384615384615383,16821.339416058396,45841.666666666664
398,610256,ROBINSON,60653,41.81734933,-87.59906677,9,OAKLAND,4,2,26061,118,0.652542372881356,0.9661016949152542,1,86.5,78.6,7.900000000000006,,,,,,19858.093220338982,
399,610257,MORTON,60612,41.88917814,-87.70510783,5,HUMBOLDT PARK,27,24,26091,178,0.7640449438202247,0.9325842696629212,2,81.30000000000001,82.0,-0.6999999999999886,,,,,,22006.988764044945,
400,610263,DULLES,60637,41.77990049,-87.61721418,9,GREATER GRAND CROSSING,20,67,26141,657,0.8143074581430746,0.9863013698630136,2,91.8,73.95,17.849999999999994,,,,,,11420.619482496195,
401,610268,ASHE,60619,41.74018379,-87.60117441,12,CHATHAM,8,40,26191,363,0.7107438016528925,0.9917355371900828,2,82.9,78.8,4.1000000000000085,,,,,,13376.363636363636,
402,610269,MCCUTCHEON,60640,41.97094908,-87.65475845,2,UPTOWN,46,31,26201,313,0.7156549520766773,0.7284345047923323,5,88.1,81.8,6.299999999999997,,,,,,20498.987220447285,
403,610271,JENSEN,60612,41.87381495,-87.70224105,5,EAST GARFIELD PARK,28,28,29341,265,0.8603773584905661,0.9962264150943396,2,86.25,79.6,6.650000000000006,610271.0,0.91,25.0,38.46153846153847,1.5384615384615383,18724.075471698114,64140.76
404,610274,JOHNSON,60623,41.86183619,-87.70313876,5,NORTH LAWNDALE,24,30,26231,225,0.8355555555555556,0.9688888888888888,3,91.65,72.4,19.25,,,,,,18503.257777777777,
405,610276,MOLLISON,60653,41.81435828,-87.61661794,9,GRAND BOULEVARD,3,4,26251,268,0.7910447761194029,0.9813432835820896,2,86.85,74.65,12.199999999999989,,,,,,14958.779850746268,
406,610279,TANNER,60619,41.76067264,-87.60679104,12,GREATER GRAND CROSSING,6,67,26281,310,0.7774193548387097,0.9967741935483873,3,77.15,72.15,5.0,,,,,,16418.751612903226,
407,610282,MCNAIR,60651,41.89781907,-87.74673078,3,AUSTIN,37,26,26301,355,0.8394366197183099,0.971830985915493,2,85.25,80.25,5.0,,,,,,18252.115492957746,
408,610284,NEW FIELD,60626,42.00770257,-87.67316833,2,ROGERS PARK,49,10,22071,523,0.6118546845124283,0.7323135755258127,2,91.05,86.35,4.700000000000017,610284.0,0.96,42.0,64.61538461538461,1.5384615384615383,14697.449330783938,57049.73809523809
409,610287,ASHBURN,60652,41.74235057,-87.70960968,10,ASHBURN,18,69,32081,355,0.752112676056338,0.9859154929577464,1,91.2,90.95,0.25,610287.0,0.97,31.0,47.69230769230769,1.5384615384615383,16295.0338028169,65655.58064516129
410,610290,MAYS,60621,41.7727275,-87.63727735,11,ENGLEWOOD,6,66,26321,242,0.7727272727272727,0.9834710743801652,2,87.45,82.5,4.950000000000003,,,,,,20340.785123966944,
411,610293,MELODY,60624,41.87879893,-87.72466123,5,WEST GARFIELD PARK,28,27,26351,273,0.8278388278388278,0.9963369963369964,3,85.65,64.19999999999999,21.450000000000017,,,,,,21470.15750915751,
412,610295,HIGGINS,60643,41.68103137,-87.64699404,13,WEST PULLMAN,34,50,31251,264,0.803030303030303,1.0,3,88.65,76.5,12.150000000000006,,,,,,14205.189393939394,
413,610298,LENART,60620,41.74718592,-87.62804036,11,CHATHAM,21,40,29361,290,0.2551724137931034,0.6758620689655173,0,85.6,85.15,0.4499999999999886,,,,,,10664.096551724138,
414,610299,KING ES,60621,41.76533498,-87.64133454,11,ENGLEWOOD,6,66,26371,242,0.8636363636363636,0.987603305785124,2,86.75,67.25,19.5,,,,,,16265.640495867769,
415,610300,WESTCOTT,60620,41.74886823,-87.63475052,11,CHATHAM,17,40,26381,424,0.8325471698113207,0.9976415094339622,0,86.55000000000001,71.05,15.500000000000014,,,,,,12769.32075471698,
416,610304,PHOENIX MILITARY HS,60612,41.87911823,-87.68696022,6,NEAR WEST SIDE,27,29,55011,455,0.8835164835164835,0.953846153846154,3,94.6875,86.63749999999999,8.050000000000011,610304.0,0.95,32.0,49.23076923076923,3.076923076923077,15813.006593406593,72192.40625
417,610305,LELAND,60644,41.87358678,-87.74927555,3,AUSTIN,29,26,26391,382,0.8298429319371727,0.9842931937172776,2,81.15,75.5,5.650000000000006,,,,,,15399.958115183246,
418,610308,RUDOLPH,60612,41.88356817,-87.66947671,6,NEAR WEST SIDE,27,29,30121,110,0.6,0.9090909090909092,2,68.85,62.7,6.149999999999999,,,,,,40842.65454545455,
419,610312,MCDOWELL,60619,41.73313231,-87.5895895,12,CALUMET HEIGHTS,8,44,26421,118,0.7542372881355932,0.9915254237288136,3,94.4,93.9,0.5,,,,,,19979.957627118645,
420,610313,DE DIEGO,60622,41.90529385,-87.6857562,5,WEST TOWN,1,25,31261,423,0.7966903073286052,0.933806146572104,2,88.2,80.9,7.299999999999997,,,,,,17557.444444444445,
421,610317,BRIGHTON PARK,60632,41.8239,-87.69207693,8,BRIGHTON PARK,12,55,26451,281,0.8220640569395018,0.9430604982206404,3,89.75,85.95,3.799999999999997,610317.0,0.96,26.0,40.0,1.5384615384615383,17859.199288256226,61148.38461538462
422,610323,BOWEN HS,60617,41.73462672,-87.55755003,12,SOUTH CHICAGO,7,42,46491,202,0.8712871287128713,0.9603960396039604,3,84.0,74.01249999999999,9.987500000000011,610323.0,0.9,56.0,86.15384615384616,3.076923076923077,27036.69801980198,53208.607142857145
423,610323,BOWEN HS,60617,41.73462672,-87.55755003,12,SOUTH CHICAGO,7,42,46491,202,0.8712871287128713,0.9603960396039604,3,84.0,74.01249999999999,9.987500000000011,610323.0,1.0,22.0,33.84615384615385,1.5384615384615383,27036.69801980198,50605.36363636364
424,610323,BOWEN HS,60617,41.73462672,-87.55755003,12,SOUTH CHICAGO,7,42,46491,202,0.8712871287128713,0.9603960396039604,3,84.0,74.01249999999999,9.987500000000011,610323.0,0.9,108.0,166.15384615384616,7.6923076923076925,27036.69801980198,59969.833333333336
425,610325,LOGANDALE,60618,41.9339702,-87.70804088,4,AVONDALE,35,22,41091,513,0.8011695906432749,0.9610136452241717,2,92.2,91.6,0.6000000000000085,610325.0,0.93,41.0,63.07692307692307,1.5384615384615383,14573.744639376218,65550.82926829268
426,610329,OROZCO,60608,41.85775481,-87.67521046,7,LOWER WEST SIDE,25,33,31281,278,0.6726618705035972,0.9856115107913668,2,89.5,88.5,1.0,,,,,,19686.489208633095,
427,610334,RABY HS,60624,41.88621006,-87.71542312,5,EAST GARFIELD PARK,28,28,46471,177,0.9152542372881356,0.9887005649717514,1,81.80000000000001,66.6875,15.112500000000011,,,,,,27450.06779661017,
428,610339,STAGG,60621,41.75892473,-87.64921669,11,ENGLEWOOD,17,66,26521,401,0.7655860349127181,0.9825436408977556,3,96.85,85.8,11.049999999999995,,,,,,12990.167082294265,
429,610340,CHICAGO ACADEMY HS,60634,41.94305449,-87.77684657,1,DUNNING,36,17,46481,556,0.7913669064748201,0.8075539568345323,3,93.1875,92.1375,1.0499999999999972,610340.0,1.0,35.0,53.84615384615385,1.5384615384615383,11191.18345323741,51490.94285714286
430,610345,WOODSON,60653,41.8144988,-87.60841877,9,GRAND BOULEVARD,3,4,26541,299,0.6956521739130435,0.9899665551839464,4,89.95,86.15,3.799999999999997,,,,,,15287.84949832776,
431,610347,CLAREMONT,60636,41.77751051,-87.6810612,10,CHICAGO LAWN,16,64,31301,357,0.8011204481792717,0.9859943977591036,2,85.25,80.35,4.900000000000006,610347.0,0.97,32.0,49.23076923076923,1.5384615384615383,20404.134453781513,53349.21875
432,610352,DURKIN PARK,60652,41.73884394,-87.72995529,10,ASHBURN,18,69,26831,671,0.7213114754098361,0.9508196721311476,2,88.55,88.9,-0.3500000000000085,610352.0,0.96,41.0,63.07692307692307,1.5384615384615383,11959.508196721312,62914.95121951219
433,610353,CALMECA,60632,41.82437733,-87.71165364,8,BRIGHTON PARK,12,55,26821,619,0.7576736672051696,0.988691437802908,1,90.0,89.05000000000001,0.9499999999999886,,,,,,12477.058158319871,
434,610354,NORTH RIVER,60625,41.96172106,-87.70715073,1,ALBANY PARK,33,14,26841,250,0.6,0.864,1,89.15,81.05,8.100000000000009,610354.0,0.96,22.0,33.84615384615385,1.5384615384615383,14841.728,47749.72727272727
435,610355,COURTENAY,60640,41.96230777,-87.66385296,2,UPTOWN,46,31,30141,219,0.7351598173515982,0.8538812785388128,2,91.65,84.25,7.400000000000006,,,,,,31555.89497716895,
436,610357,SPRY HS,60623,41.84776169,-87.69894611,7,SOUTH LAWNDALE,12,32,46461,75,0.9066666666666666,0.9866666666666668,2,85.82499999999999,62.3625,23.46249999999999,610357.0,1.0,15.0,23.07692307692308,1.5384615384615383,41364.44,54088.2
437,610362,EVERS,60628,41.71566536,-87.63930547,11,WASHINGTON HEIGHTS,34,72,26591,219,0.6940639269406392,0.9908675799086758,2,93.75,85.3,8.450000000000003,,,,,,17369.35616438356,
438,610363,DISNEY,60613,41.95681613,-87.64608274,2,UPTOWN,46,31,29401,1448,0.5669889502762431,0.7147790055248618,5,89.25,91.75,-2.5,,,,,,9574.192679558011,
439,610366,WACKER,60643,41.7161933,-87.64804432,11,WASHINGTON HEIGHTS,34,72,26621,223,0.6771300448430493,1.0,0,92.25,91.7,0.5499999999999972,,,,,,18060.502242152466,
440,610367,DEPRIEST,60644,41.87797883,-87.76629755,3,AUSTIN,29,26,26631,471,0.7898089171974523,0.9851380042462844,4,89.4,72.4,17.0,,,,,,16472.471337579616,
441,610368,HUGHES L,60628,41.70534232,-87.62986866,13,ROSELAND,34,45,22451,469,0.6908315565031983,0.9893390191897654,1,81.15,73.4,7.75,,,,,,15756.639658848613,
442,610369,JACKSON M,60620,41.73412547,-87.64676673,11,AUBURN GRESHAM,21,70,26651,348,0.7816091954022989,0.9885057471264368,2,90.7,82.65,8.049999999999983,,,,,,15394.316091954022,
443,610380,WILLIAMS HS,60615,41.8061176,-87.62502998,9,GRAND BOULEVARD,3,4,55161,71,0.9154929577464788,0.9859154929577464,3,85.38749999999999,81.025,4.362499999999983,,,,,,41691.05633802817,
444,610381,BRONZEVILLE HS,60615,41.80520417,-87.62500447,9,GRAND BOULEVARD,3,4,55191,71,0.9154929577464788,0.971830985915493,2,83.625,84.5,-0.875,610381.0,0.92,21.0,32.30769230769231,1.5384615384615383,40204.16901408451,57940.0
445,610383,SOCIAL JUSTICE HS,60623,41.83350728,-87.73529947,7,SOUTH LAWNDALE,22,32,55171,287,0.8989547038327527,0.9930313588850174,3,88.225,76.25,11.974999999999994,,,,,,16630.205574912892,
446,610384,INFINITY HS,60623,41.83616882,-87.73527796,7,SOUTH LAWNDALE,22,32,55151,405,0.928395061728395,0.982716049382716,4,92.6125,88.125,4.487500000000011,,,,,,12142.172839506173,
447,610385,MULTICULTURAL HS,60623,41.83528187,-87.7352833,7,SOUTH LAWNDALE,22,32,55181,263,0.8479087452471483,0.9923954372623576,4,87.5625,85.475,2.0875000000000057,,,,,,13847.300380228136,
448,610386,PEACE AND EDUCATION HS,60609,41.80351472,-87.66737777,8,NEW CITY,20,59,67021,147,0.8707482993197279,0.9863945578231292,0,85.88333333333333,76.06666666666668,9.816666666666649,610386.0,0.91,20.0,30.76923076923077,3.076923076923077,26836.251700680274,17470.3
449,610389,ORR HS,60624,41.89454672,-87.72665959,5,HUMBOLDT PARK,37,24,28151,236,0.8135593220338984,0.961864406779661,2,73.0625,65.075,7.987499999999997,610389.0,1.0,23.0,35.38461538461539,3.076923076923077,18429.927966101695,46385.82608695652
450,610390,RICKOVER MILITARY HS,60660,41.98902071,-87.66578851,2,EDGEWATER,48,15,45221,457,0.7067833698030634,0.8205689277899344,4,90.75,85.3125,5.4375,,,,,,13316.66739606127,
451,610391,LINDBLOM HS,60636,41.7820408,-87.67166185,11,WEST ENGLEWOOD,15,65,46511,1390,0.5230215827338129,0.9553956834532374,3,90.6125,86.625,3.987499999999997,,,,,,10619.044604316547,
452,610392,WORLD LANGUAGE HS,60623,41.83439662,-87.73529222,7,SOUTH LAWNDALE,22,32,52011,342,0.9064327485380116,0.9912280701754386,3,90.775,86.25,4.525000000000006,610392.0,0.93,23.0,35.38461538461539,3.076923076923077,14704.266081871345,60608.65217391304
453,610394,UPLIFT HS,60640,41.96554746,-87.65247335,2,UPTOWN,46,31,26861,97,0.711340206185567,0.8041237113402062,8,85.1,70.86250000000001,14.237499999999985,610394.0,1.0,20.0,30.76923076923077,1.5384615384615383,47957.36082474227,48913.9
454,610396,TARKINGTON,60629,41.76440708,-87.70644465,10,CHICAGO LAWN,17,64,26791,863,0.8238702201622248,0.9826187717265352,1,93.05,88.05,5.0,,,,,,11407.358053302434,
455,610402,DEVRY HS,60618,41.94138764,-87.69076139,4,NORTH CENTER,47,46,46521,130,0.7076923076923077,0.7769230769230769,3,94.6,92.625,1.9749999999999943,,,,,,17110.292307692307,
456,610405,SUDER,60612,41.88321452,-87.67763611,6,NEAR WEST SIDE,27,29,26881,450,0.4111111111111111,0.7066666666666667,2,94.0,89.75,4.25,610405.0,0.93,25.0,38.46153846153847,3.076923076923077,12223.28,56079.68
457,610499,COLLINS HS,60623,41.86414857,-87.70204159,5,NORTH LAWNDALE,24,30,49131,214,0.9532710280373832,0.9953271028037384,3,83.8625,70.9625,12.899999999999991,610499.0,1.0,24.0,36.92307692307693,1.5384615384615383,21391.228971962617,46030.916666666664
458,610504,THOMAS,60609,41.82777491,-87.67754185,8,MCKINLEY PARK,12,56,26891,135,0.3037037037037037,0.8296296296296296,4,87.95,86.65,1.2999999999999972,,,,,,27139.955555555556,
459,610513,AIR FORCE HS,60609,41.82814532,-87.63275698,6,ARMOUR SQUARE,11,35,45231,137,0.8248175182481752,0.9343065693430656,4,91.8875,87.98750000000001,3.899999999999992,610513.0,0.98,25.0,38.46153846153847,3.076923076923077,26740.605839416057,61082.76
460,610518,AUSTIN CCA HS,60644,41.88599329,-87.76191637,3,AUSTIN,37,26,46621,176,0.8181818181818182,0.9943181818181818,3,83.275,53.225,30.05000000000001,610518.0,1.0,19.0,29.230769230769237,1.5384615384615383,24297.517045454544,52240.94736842105
461,610520,LASALLE II,60622,41.90291446,-87.67369603,6,WEST TOWN,1,25,29101,581,0.2908777969018933,0.6247848537005164,2,88.25,84.7,3.549999999999997,,,,,,11568.502581755594,
462,610524,ALCOTT HS,60618,41.93579456,-87.68056201,4,NORTH CENTER,32,46,70241,353,0.6940509915014165,0.8130311614730878,4,90.6625,82.0875,8.574999999999989,,,,,,13024.552407932011,
463,610529,OGDEN HS,60642,41.89354764,-87.65940468,6,WEST TOWN,1,25,24731,488,0.7049180327868853,0.8340163934426229,2,91.8,83.7625,8.037500000000009,,,,,,38417.44262295082,
464,610530,SOUTH SHORE ES,60637,41.76775511,-87.5903961,12,SOUTH SHORE,5,39,22251,254,0.610236220472441,0.9921259842519684,0,75.7,70.35,5.3500000000000085,610530.0,0.93,26.0,40.0,1.5384615384615383,22101.63779527559,49710.269230769234
465,610533,PRIETO,60639,41.92131758,-87.76578057,3,BELMONT CRAGIN,36,19,22581,743,0.8411843876177658,0.9851951547779272,2,93.1,88.75,4.349999999999994,,,,,,13104.911170928668,
466,610539,CAMRAS,60634,41.93493062,-87.77012726,3,BELMONT CRAGIN,30,19,22691,790,0.7278481012658228,0.9253164556962026,2,88.80000000000001,86.2,2.6000000000000085,,,,,,12477.984810126582,
467,610541,LORCA,60618,41.94002591,-87.72478312,4,AVONDALE,30,22,22341,639,0.8137715179968701,0.9546165884194052,3,92.85,88.35,4.5,,,,,,12603.88262910798,
468,610542,WEST RIDGE,60645,42.002959,-87.70591721,2,WEST RIDGE,50,20,22381,627,0.7256778309409888,0.3460925039872408,0,91.3,87.65,3.649999999999992,610542.0,0.96,47.0,72.3076923076923,1.5384615384615383,12555.09090909091,54629.31914893617
469,610543,SOLORIO HS,60632,41.79520056,-87.71105882,8,GAGE PARK,14,61,46101,1213,0.9043693322341304,0.9818631492168178,3,94.0375,85.6,8.4375,,,,,,11027.910140148393,
470,610547,SOUTH SHORE INTL HS,60649,41.75879166,-87.57635264,12,SOUTH SHORE,8,39,46631,508,0.7618110236220472,0.9921259842519684,3,89.725,78.30000000000001,11.424999999999985,610547.0,0.92,41.0,63.07692307692307,3.076923076923077,14816.795275590552,66843.12195121951
471,610557,PATHWAYS - ASHBURN HS,60652,41.73523902,-87.70406007,10,ASHBURN,18,69,65018,291,0.6769759450171822,0.9209621993127148,0,70.73750000000001,60.7125,10.025000000000013,,,,,,14833.329896907217,
472,610558,GOODE HS,60652,41.7537498,-87.70734535,10,ASHBURN,18,69,46611,961,0.8616024973985432,0.9947970863683664,2,88.3,84.3125,3.987499999999997,,,,,,11176.231009365245,
473,610561,CRANE MEDICAL HS,60612,41.87694744,-87.68330135,6,NEAR WEST SIDE,27,29,46641,306,0.9019607843137256,0.9869281045751634,4,88.13749999999999,73.7125,14.424999999999985,,,,,,18973.003267973858,
474,610563,BACK OF THE YARDS HS,60609,41.80841254,-87.67754137,8,NEW CITY,15,59,46551,1005,0.9154228855721394,0.9731343283582088,3,92.3,85.625,6.674999999999997,610563.0,1.0,75.0,115.38461538461536,6.153846153846154,10808.194029850747,52305.05333333334
475,610564,DISNEY II HS,60618,41.95248767,-87.72136351,1,IRVING PARK,45,16,26921,747,0.6104417670682731,0.7724230254350736,3,88.1375,84.7125,3.424999999999997,,,,,,16039.659973226238,
476,610515,DISNEY II ES,60641,41.95046051,-87.73067838,1,IRVING PARK,45,16,26921,430,0.2976744186046511,0.4883720930232558,3,92.7,93.05,-0.3500000000000085,610515.0,0.93,84.0,129.23076923076923,3.076923076923077,27864.246511627905,60664.392857142855
477,610515,DISNEY II ES,60641,41.95046051,-87.73067838,1,IRVING PARK,45,16,26921,430,0.2976744186046511,0.4883720930232558,3,92.7,93.05,-0.3500000000000085,610515.0,0.94,72.0,110.76923076923076,3.076923076923077,27864.246511627905,59977.055555555555
478,610515,DISNEY II ES,60641,41.95046051,-87.73067838,1,IRVING PARK,45,16,26921,430,0.2976744186046511,0.4883720930232558,3,92.7,93.05,-0.3500000000000085,610515.0,0.95,72.0,110.76923076923076,3.076923076923077,27864.246511627905,59977.055555555555
479,610565,CAMELOT - EXCEL ENGLEWOOD HS,60621,41.76389597,-87.64912435,11,ENGLEWOOD,6,66,63142,220,0.7909090909090909,0.9863636363636364,3,71.5875,71.975,-0.3874999999999886,610565.0,0.92,15.0,23.07692307692308,4.0,17156.831818181818,38806.066666666666
480,610568,PATHWAYS - AVONDALE HS,60618,41.93943321,-87.70520632,4,AVONDALE,33,22,65016,328,0.7408536585365854,0.8871951219512195,0,78.36250000000001,63.625,14.737500000000011,,,,,,13299.55487804878,
481,610569,OMBUDSMAN - NORTHWEST HS,60631,42.01717124,-87.80668177,1,EDISON PARK,41,77,65013,169,0.7041420118343196,0.6686390532544378,2,57.875,60.3375,-2.4624999999999986,,,,,,22860.28402366864,
482,610570,OMBUDSMAN - SOUTH HS,60635,41.78302658,-87.68363453,10,CHICAGO LAWN,16,64,65014,262,0.8206106870229007,0.9809160305343512,2,56.8125,44.5625,12.25,,,,,,24553.41603053435,
483,610571,OMBUDSMAN - WEST HS,60612,41.874673,-87.6878423,6,NEAR WEST SIDE,28,29,65015,155,0.7806451612903226,0.9806451612903224,2,52.975,44.7375,8.237500000000004,,,,,,22809.21935483871,
484,609774,ALCOTT ES,60614,41.92984985,-87.64641314,4,LINCOLN PARK,43,68,22041,602,0.1029900332225913,0.2043189368770764,3,94.0,87.7,6.299999999999997,,,,,,12679.832225913622,
485,610184,SPRY ES,60623,41.84774672,-87.70018447,7,SOUTH LAWNDALE,12,32,25451,299,0.8561872909698997,0.9866220735785952,4,90.15,90.35,-0.1999999999999886,,,,,,18293.85618729097,
486,400172,ASPIRA - BUSINESS & FINANCE HS,60618,41.93572647,-87.71820414,4,AVONDALE,30,22,66255,490,0.7612244897959184,0.9755102040816328,1,87.96666666666667,80.98333333333333,6.983333333333334,,,,,,17343.610204081633,
487,610586,SOUTHEAST,60617,41.70485859,-87.52798508,13,EAST SIDE,10,49,22631,635,0.7338582677165354,0.9700787401574804,2,89.9,83.7,6.200000000000003,,,,,,12152.23779527559,
488,400179,NOBLE - MANSUETO HS,60632,41.80798719,-87.69705748,8,BRIGHTON PARK,15,54,66579,1043,0.8657718120805369,0.9923298178331736,5,94.975,84.55,10.424999999999995,,,,,,15831.98945349952,
489,610587,DYETT ARTS HS,60615,41.80120417,-87.61223911,9,WASHINGTON PARK,4,7,46681,523,0.722753346080306,0.9904397705544932,0,92.325,81.60000000000001,10.724999999999994,610587.0,1.0,19.0,29.230769230769237,1.5384615384615383,13239.933078393882,60547.57894736842
